{"marker_blobs": [{"location": "Lomas de Zamora, Buenos Aires, Argentina", "lat": -34.76088, "lon": -58.40632, "n_therapists": 1, "html": "<h3><b>Lomas de Zamora, Buenos Aires, Argentina</b><h3>\n  <table border=\"1\">\n  <tr>\n      <th>Name</th>\n      <th>Degree</th>\n      <th>Email</th>\n    </tr>\n\n    <tr>\n      <th>Luciana Agostina Corda</th>\n      <th>Licenciada en psicolog\u00eda</th>\n      <th>cordaluciana@hotmail.com</th>\n      </tr>\n    "}, {"location": "Gold Coast, Queensland, Australia", "lat": -28.017366, "lon": 153.42725, "n_therapists": 1, "html": "<h3><b>Gold Coast, Queensland, Australia</b><h3>\n  <table border=\"1\">\n  <tr>\n      <th>Name</th>\n      <th>Degree</th>\n      <th>Email</th>\n    </tr>\n\n    <tr>\n      <th>Abby Marshall</th>\n      <th></th>\n      <th>Abbymarshall89@gmail.com</th>\n      </tr>\n    "}, {"location": "Sydney, New South Wales, Australia", "lat": -33.868633, "lon": 151.209421, "n_therapists": 33, "html": "<h3><b>Sydney, New South Wales, Australia</b><h3>\n  <table border=\"1\">\n  <tr>\n      <th>Name</th>\n      <th>Degree</th>\n      <th>Email</th>\n    </tr>\n\n    <tr>\n      <th>Amelia Walter</th>\n      <th>DClinPsych/MSc</th>\n      <th>amelia_walter@hotmail.com</th>\n      </tr>\n    \n\n    <tr>\n      <th>Anita Cvijic</th>\n      <th></th>\n      <th>anita.cvijic@ku.com.au</th>\n      </tr>\n    \n\n    <tr>\n      <th>Annette Barone</th>\n      <th>MA</th>\n      <th>ignitedevelopmentandlearning@gmail.com</th>\n      </tr>\n    \n\n    <tr>\n      <th>Bronwyn Mathews</th>\n      <th>Dip EC</th>\n      <th>bronwyn.matthews@ku.com.au</th>\n      </tr>\n    \n\n    <tr>\n      <th>Christopher Sufani</th>\n      <th></th>\n      <th>christopher.sufani@gmail.com</th>\n      </tr>\n    \n\n    <tr>\n      <th>Claudia Lai</th>\n      <th>MSLP</th>\n      <th>claudia@walkietalkieearlyintervention.com.au</th>\n      </tr>\n    \n\n    <tr>\n      <th>Colette Eyers</th>\n      <th>MA</th>\n      <th>colette.eyers@ku.com.au</th>\n      </tr>\n    \n\n    <tr>\n      <th>Daniella Sheldon</th>\n      <th>OT</th>\n      <th>dani@walkietalkieearlyintervention.com.au</th>\n      </tr>\n    \n\n    <tr>\n      <th>Danielle Bernitz</th>\n      <th></th>\n      <th>danielle@oneononechildren.com.au</th>\n      </tr>\n    \n\n    <tr>\n      <th>Derek Truong</th>\n      <th></th>\n      <th>derektruong23@gmail.com</th>\n      </tr>\n    \n\n    <tr>\n      <th>Elizabeth Aylward</th>\n      <th>MA</th>\n      <th>eaylward@uow.edu.au</th>\n      </tr>\n    \n\n    <tr>\n      <th>Halaina Hills</th>\n      <th>BA</th>\n      <th>halaina@cdinstitute.com.au</th>\n      </tr>\n    \n\n    <tr>\n      <th>Hannah Morgan</th>\n      <th>Dip CS</th>\n      <th>hannah.morgan@ku.com.au</th>\n      </tr>\n    \n\n    <tr>\n      <th>Karen Hayes</th>\n      <th>MS</th>\n      <th>karen.hayes@ku.com.au</th>\n      </tr>\n    \n\n    <tr>\n      <th>Kate Cantor</th>\n      <th>BS</th>\n      <th>k.cantor@adhc.nsw.gov.au</th>\n      </tr>\n    \n\n    <tr>\n      <th>Lien-En (Andrea) Shih</th>\n      <th>MSLP</th>\n      <th>andrea.sh928@gmail.com</th>\n      </tr>\n    \n\n    <tr>\n      <th>Linda Johnson</th>\n      <th></th>\n      <th>linda.johnson@ku.com.au</th>\n      </tr>\n    \n\n    <tr>\n      <th>Maree Mauro</th>\n      <th>MA SpEd</th>\n      <th>mareemauro@gmail.com</th>\n      </tr>\n    \n\n    <tr>\n      <th>Margaret Gibson</th>\n      <th>M.Ed</th>\n      <th>margaret.gibson@ku.com.au</th>\n      </tr>\n    \n\n    <tr>\n      <th>Maria Corera</th>\n      <th>BA., MSW</th>\n      <th>maria.corera@footprints-eic.com</th>\n      </tr>\n    \n\n    <tr>\n      <th>Michelle Marks</th>\n      <th></th>\n      <th>m.marks@det.nsw.edu.au</th>\n      </tr>\n    \n\n    <tr>\n      <th>Nadine Bakka</th>\n      <th>BS, SLP</th>\n      <th>nadine.bakka@ku.com.au</th>\n      </tr>\n    \n\n    <tr>\n      <th>Natasha Ozerov</th>\n      <th>BSC</th>\n      <th>natasha.e.ozerov@gmail.com</th>\n      </tr>\n    \n\n    <tr>\n      <th>Netti Heslewood</th>\n      <th>B.Ed</th>\n      <th>netti.heselwood@ku.com.au</th>\n      </tr>\n    \n\n    <tr>\n      <th>Nicole Tirossian</th>\n      <th>BA/ECE</th>\n      <th>nicole.tirossian@ku.com.au</th>\n      </tr>\n    \n\n    <tr>\n      <th>Rebecca Fordham</th>\n      <th></th>\n      <th>ku.cobbitty@ku.com.au</th>\n      </tr>\n    \n\n    <tr>\n      <th>Rebecca Harrison</th>\n      <th>Dip EC</th>\n      <th>rebecca.harrison@ku.com.au</th>\n      </tr>\n    \n\n    <tr>\n      <th>Sheryl Yorke</th>\n      <th>BA/ECE</th>\n      <th>sherylesdm@gmail.com</th>\n      </tr>\n    \n\n    <tr>\n      <th>Susan Marden</th>\n      <th>B.App.Sc(SpPath)</th>\n      <th>info@oneononechildren.com.au</th>\n      </tr>\n    \n\n    <tr>\n      <th>Tamara Freeman</th>\n      <th>SLP</th>\n      <th>t.freeman@learninglinks.com.au</th>\n      </tr>\n    \n\n    <tr>\n      <th>Tara Grech</th>\n      <th>Dip.CS</th>\n      <th>tara.grech@hotmail.com</th>\n      </tr>\n    \n\n    <tr>\n      <th>Toya Thomas</th>\n      <th>Dip CS</th>\n      <th>toysthom@gmail.com</th>\n      </tr>\n    \n\n    <tr>\n      <th>Meg Russell</th>\n      <th>MA</th>\n      <th>Meg.jane.russell@gmail.com</th>\n      </tr>\n    "}, {"location": "Melbourne, Victoria, Australia", "lat": -37.825071, "lon": 144.978682, "n_therapists": 9, "html": "<h3><b>Melbourne, Victoria, Australia</b><h3>\n  <table border=\"1\">\n  <tr>\n      <th>Name</th>\n      <th>Degree</th>\n      <th>Email</th>\n    </tr>\n\n    <tr>\n      <th>Anika Kirkman</th>\n      <th>BS,SP</th>\n      <th>anika@beststartclinic.com.au</th>\n      </tr>\n    \n\n    <tr>\n      <th>Bessie Loo</th>\n      <th></th>\n      <th>bessiel@irabina.com</th>\n      </tr>\n    \n\n    <tr>\n      <th>Casey Same</th>\n      <th>M.Ed</th>\n      <th>casey.same@hotmail.com</th>\n      </tr>\n    \n\n    <tr>\n      <th>Di Lam</th>\n      <th></th>\n      <th>di@earlycommunicators.com.au</th>\n      </tr>\n    \n\n    <tr>\n      <th>Gabrielle Toscano</th>\n      <th>BOT</th>\n      <th>g.toscano@latrobe.edu.au</th>\n      </tr>\n    \n\n    <tr>\n      <th>Joanne Crosbie</th>\n      <th>Grad Dip</th>\n      <th>jocrosbie@gmail.com</th>\n      </tr>\n    \n\n    <tr>\n      <th>Maria Fassoulakis</th>\n      <th>SLP</th>\n      <th>maria.fassoulakis@gmail.com</th>\n      </tr>\n    \n\n    <tr>\n      <th>Shashika Wickramasinghe</th>\n      <th>MA</th>\n      <th>info@playpartners.com.au</th>\n      </tr>\n    \n\n    <tr>\n      <th>Sophie Bird</th>\n      <th>BAS, MSP</th>\n      <th>Sophie.bird96@hotmail.com</th>\n      </tr>\n    "}, {"location": "Sandringham, Victoria, Australia", "lat": -37.952795, "lon": 145.013604, "n_therapists": 2, "html": "<h3><b>Sandringham, Victoria, Australia</b><h3>\n  <table border=\"1\">\n  <tr>\n      <th>Name</th>\n      <th>Degree</th>\n      <th>Email</th>\n    </tr>\n\n    <tr>\n      <th>Anna Tooth</th>\n      <th>MS</th>\n      <th>info@beststartclinic.com.au</th>\n      </tr>\n    \n\n    <tr>\n      <th>Nicole McVeigh</th>\n      <th>BA Hons</th>\n      <th>Nicole.mcveigh@beststartclinic.com.au</th>\n      </tr>\n    "}, {"location": "Kenthurst, New South Wales, Australia", "lat": -33.662742, "lon": 151.002904, "n_therapists": 1, "html": "<h3><b>Kenthurst, New South Wales, Australia</b><h3>\n  <table border=\"1\">\n  <tr>\n      <th>Name</th>\n      <th>Degree</th>\n      <th>Email</th>\n    </tr>\n\n    <tr>\n      <th>Anne Chalfant</th>\n      <th>PsyD</th>\n      <th>info@anniescentre.com</th>\n      </tr>\n    "}, {"location": "Wollongong, NSW, Australia", "lat": -34.428377, "lon": 150.893892, "n_therapists": 1, "html": "<h3><b>Wollongong, NSW, Australia</b><h3>\n  <table border=\"1\">\n  <tr>\n      <th>Name</th>\n      <th>Degree</th>\n      <th>Email</th>\n    </tr>\n\n    <tr>\n      <th>Arina Atkova</th>\n      <th>BA, Reg. Teacher</th>\n      <th>Arina.aktova@hotmail.com</th>\n      </tr>\n    "}, {"location": "Cobbitty, New South Wales, Australia", "lat": -34.011739, "lon": 150.67192, "n_therapists": 1, "html": "<h3><b>Cobbitty, New South Wales, Australia</b><h3>\n  <table border=\"1\">\n  <tr>\n      <th>Name</th>\n      <th>Degree</th>\n      <th>Email</th>\n    </tr>\n\n    <tr>\n      <th>Belinda Fordham-Latta</th>\n      <th>M.Ed</th>\n      <th>ku.cobbitty@ku.com.au</th>\n      </tr>\n    "}, {"location": "Bayswater, Victoria, Australia", "lat": -37.847229, "lon": 145.259872, "n_therapists": 6, "html": "<h3><b>Bayswater, Victoria, Australia</b><h3>\n  <table border=\"1\">\n  <tr>\n      <th>Name</th>\n      <th>Degree</th>\n      <th>Email</th>\n    </tr>\n\n    <tr>\n      <th>Belinda Howlett</th>\n      <th></th>\n      <th>orlam@irabina.com</th>\n      </tr>\n    \n\n    <tr>\n      <th>Gwenda Moore</th>\n      <th></th>\n      <th>gwendam@irabina.com</th>\n      </tr>\n    \n\n    <tr>\n      <th>Sarah Inglis</th>\n      <th></th>\n      <th>sarahi@irabina.com</th>\n      </tr>\n    \n\n    <tr>\n      <th>Sue Blake</th>\n      <th></th>\n      <th>sueb@irabina.com</th>\n      </tr>\n    \n\n    <tr>\n      <th>Syrena Dunne</th>\n      <th></th>\n      <th>syrenad@irabina.com</th>\n      </tr>\n    \n\n    <tr>\n      <th>Tania Mcguire</th>\n      <th></th>\n      <th>taniam@irabina.com</th>\n      </tr>\n    "}, {"location": "Gladstone, Queensland, Australia", "lat": -23.841229, "lon": 151.253107, "n_therapists": 4, "html": "<h3><b>Gladstone, Queensland, Australia</b><h3>\n  <table border=\"1\">\n  <tr>\n      <th>Name</th>\n      <th>Degree</th>\n      <th>Email</th>\n    </tr>\n\n    <tr>\n      <th>Bonita Green</th>\n      <th>BA, MSN, MDS</th>\n      <th>bonitachard@icloud.com</th>\n      </tr>\n    \n\n    <tr>\n      <th>Katrina O'Brien</th>\n      <th>BA</th>\n      <th>Katrina.obrien@autismqld.com.au</th>\n      </tr>\n    \n\n    <tr>\n      <th>Marguerite Van Blerk</th>\n      <th>BA, Grad. Dip. Autism</th>\n      <th>marguerite.vanblerk@autismqld.com.au</th>\n      </tr>\n    \n\n    <tr>\n      <th>Shelby Bradshaw</th>\n      <th>BA</th>\n      <th>shelby.bradshaw@autismqld.com.au</th>\n      </tr>\n    "}, {"location": "Brighton, Victoria, Australia", "lat": -37.907571, "lon": 144.996841, "n_therapists": 11, "html": "<h3><b>Brighton, Victoria, Australia</b><h3>\n  <table border=\"1\">\n  <tr>\n      <th>Name</th>\n      <th>Degree</th>\n      <th>Email</th>\n    </tr>\n\n    <tr>\n      <th>Brodie Anne Sheehan</th>\n      <th></th>\n      <th>info@beststartclinic.com.au</th>\n      </tr>\n    \n\n    <tr>\n      <th>Caroline de Fina</th>\n      <th>PsyD</th>\n      <th>caroline@beststartclinic.com</th>\n      </tr>\n    \n\n    <tr>\n      <th>Eleanor Bryant</th>\n      <th>BA</th>\n      <th>info@beststartclinic.com.au</th>\n      </tr>\n    \n\n    <tr>\n      <th>Hannah Maynard</th>\n      <th>OT</th>\n      <th>hannah@beststartclinic.com.au</th>\n      </tr>\n    \n\n    <tr>\n      <th>Jaimie Roberts</th>\n      <th>B.Ed</th>\n      <th>jaimie@beststartclinic.com.au</th>\n      </tr>\n    \n\n    <tr>\n      <th>Kelli Rippon</th>\n      <th></th>\n      <th>kelli@beststartclinic.com.au</th>\n      </tr>\n    \n\n    <tr>\n      <th>Maggie Brennan</th>\n      <th>MS</th>\n      <th>info@beststartclinic.com.au</th>\n      </tr>\n    \n\n    <tr>\n      <th>Maree Yes</th>\n      <th>MSW</th>\n      <th>maree@beststartclinic.com.au</th>\n      </tr>\n    \n\n    <tr>\n      <th>Margaret Brennan</th>\n      <th></th>\n      <th>maggie@beststartclinic.com.au</th>\n      </tr>\n    \n\n    <tr>\n      <th>Phoebe Scott</th>\n      <th>MSLP</th>\n      <th>phoebe@beststartclinic.com.au</th>\n      </tr>\n    \n\n    <tr>\n      <th>Shaun Connelly</th>\n      <th></th>\n      <th>shaun@beststartclinic.com.au</th>\n      </tr>\n    "}, {"location": "Liverpool, New South Wales, Australia", "lat": -33.924092, "lon": 150.916093, "n_therapists": 3, "html": "<h3><b>Liverpool, New South Wales, Australia</b><h3>\n  <table border=\"1\">\n  <tr>\n      <th>Name</th>\n      <th>Degree</th>\n      <th>Email</th>\n    </tr>\n\n    <tr>\n      <th>Carol Zebib</th>\n      <th>OT</th>\n      <th>c.zebib@adhc.nsw.gov.au</th>\n      </tr>\n    \n\n    <tr>\n      <th>Kerry Whitby</th>\n      <th>BA</th>\n      <th>kerry.whitby@ku.com.au</th>\n      </tr>\n    \n\n    <tr>\n      <th>Kristy Tao</th>\n      <th>BA</th>\n      <th>Kristy.tao@ku.com.au</th>\n      </tr>\n    "}, {"location": "Bundoora, Victoria, Australia", "lat": -37.695471, "lon": 145.063341, "n_therapists": 5, "html": "<h3><b>Bundoora, Victoria, Australia</b><h3>\n  <table border=\"1\">\n  <tr>\n      <th>Name</th>\n      <th>Degree</th>\n      <th>Email</th>\n    </tr>\n\n    <tr>\n      <th>Carolyne Jones</th>\n      <th>MA</th>\n      <th>carolyne.jones@latrobe.edu</th>\n      </tr>\n    \n\n    <tr>\n      <th>Dianna Rodset</th>\n      <th>B.Ed</th>\n      <th>diannarodset@outlook.com</th>\n      </tr>\n    \n\n    <tr>\n      <th>Ed Duncan</th>\n      <th>CCC-SLP</th>\n      <th>edward.duncan@latrobe.edu.au</th>\n      </tr>\n    \n\n    <tr>\n      <th>Jess Feary</th>\n      <th>OT</th>\n      <th>jlfeary@gmail.com</th>\n      </tr>\n    \n\n    <tr>\n      <th>Shannon Upson</th>\n      <th></th>\n      <th>s.upson@latrobe.edu.au</th>\n      </tr>\n    "}, {"location": "Sydney, New South Whales, Australia", "lat": -33.868633, "lon": 151.209421, "n_therapists": 1, "html": "<h3><b>Sydney, New South Whales, Australia</b><h3>\n  <table border=\"1\">\n  <tr>\n      <th>Name</th>\n      <th>Degree</th>\n      <th>Email</th>\n    </tr>\n\n    <tr>\n      <th>Cathy Quigg</th>\n      <th>BSc Hons Psychology</th>\n      <th>c.quigg100@gmail.com</th>\n      </tr>\n    "}, {"location": "Baulkham Hills, New South Wales, Australia", "lat": -33.756656, "lon": 150.978973, "n_therapists": 1, "html": "<h3><b>Baulkham Hills, New South Wales, Australia</b><h3>\n  <table border=\"1\">\n  <tr>\n      <th>Name</th>\n      <th>Degree</th>\n      <th>Email</th>\n    </tr>\n\n    <tr>\n      <th>Cindy Hsiang</th>\n      <th>M.Ed</th>\n      <th>cindy.aspirationclinic@gmail.com</th>\n      </tr>\n    "}, {"location": "Sydney, NSW, Australia", "lat": -33.868633, "lon": 151.209421, "n_therapists": 2, "html": "<h3><b>Sydney, NSW, Australia</b><h3>\n  <table border=\"1\">\n  <tr>\n      <th>Name</th>\n      <th>Degree</th>\n      <th>Email</th>\n    </tr>\n\n    <tr>\n      <th>Dale Scheftz</th>\n      <th>BA, MOT</th>\n      <th>dalescheftz@gmail.com</th>\n      </tr>\n    \n\n    <tr>\n      <th>Marianna Georgiadis</th>\n      <th>BA, Grad. Dip. Early Child.</th>\n      <th>ambo166@optusnet.com.au</th>\n      </tr>\n    "}, {"location": "East Mackay, Queensland, Australia", "lat": -21.15236, "lon": 149.19875, "n_therapists": 1, "html": "<h3><b>East Mackay, Queensland, Australia</b><h3>\n  <table border=\"1\">\n  <tr>\n      <th>Name</th>\n      <th>Degree</th>\n      <th>Email</th>\n    </tr>\n\n    <tr>\n      <th>Denise Randell</th>\n      <th>B.Ed</th>\n      <th>denise.randell@autismqld.com.au</th>\n      </tr>\n    "}, {"location": "Wagga Wagga, New South Wales, Australia", "lat": -35.108503, "lon": 147.359497, "n_therapists": 2, "html": "<h3><b>Wagga Wagga, New South Wales, Australia</b><h3>\n  <table border=\"1\">\n  <tr>\n      <th>Name</th>\n      <th>Degree</th>\n      <th>Email</th>\n    </tr>\n\n    <tr>\n      <th>Dimity Cowley</th>\n      <th>BA</th>\n      <th>d.cowley10@optusnet.com.au</th>\n      </tr>\n    \n\n    <tr>\n      <th>Lucinda King</th>\n      <th></th>\n      <th>ku.kangaroo@ku.com.au</th>\n      </tr>\n    "}, {"location": "Rockhampton, Queensland, Australia", "lat": -23.379739, "lon": 150.509755, "n_therapists": 1, "html": "<h3><b>Rockhampton, Queensland, Australia</b><h3>\n  <table border=\"1\">\n  <tr>\n      <th>Name</th>\n      <th>Degree</th>\n      <th>Email</th>\n    </tr>\n\n    <tr>\n      <th>Donna Purcell</th>\n      <th>BaECED</th>\n      <th>amjac16@bigpond.com</th>\n      </tr>\n    "}, {"location": "Port Melbourne, Victoria, Australia", "lat": -37.830262, "lon": 144.922758, "n_therapists": 1, "html": "<h3><b>Port Melbourne, Victoria, Australia</b><h3>\n  <table border=\"1\">\n  <tr>\n      <th>Name</th>\n      <th>Degree</th>\n      <th>Email</th>\n    </tr>\n\n    <tr>\n      <th>Elise Swallow</th>\n      <th></th>\n      <th>elise@voicewithin.com.au</th>\n      </tr>\n    "}, {"location": "Toowoomba, Queensland, Australia", "lat": -27.564533, "lon": 151.95552, "n_therapists": 1, "html": "<h3><b>Toowoomba, Queensland, Australia</b><h3>\n  <table border=\"1\">\n  <tr>\n      <th>Name</th>\n      <th>Degree</th>\n      <th>Email</th>\n    </tr>\n\n    <tr>\n      <th>Ellen Firrell</th>\n      <th>MA</th>\n      <th>ellen.firrell@uqconnect.edu.au</th>\n      </tr>\n    "}, {"location": "Geelong, Victoria, Australia", "lat": -38.150785, "lon": 144.361579, "n_therapists": 1, "html": "<h3><b>Geelong, Victoria, Australia</b><h3>\n  <table border=\"1\">\n  <tr>\n      <th>Name</th>\n      <th>Degree</th>\n      <th>Email</th>\n    </tr>\n\n    <tr>\n      <th>EMILY LEWIS</th>\n      <th>BSc</th>\n      <th>emily@beststartclinic.com.au</th>\n      </tr>\n    "}, {"location": "Wollongong, New South Wales, Australia", "lat": -34.428377, "lon": 150.893892, "n_therapists": 2, "html": "<h3><b>Wollongong, New South Wales, Australia</b><h3>\n  <table border=\"1\">\n  <tr>\n      <th>Name</th>\n      <th>Degree</th>\n      <th>Email</th>\n    </tr>\n\n    <tr>\n      <th>Ellen Milross</th>\n      <th>B.Psych</th>\n      <th>em765@uowmail.edu.au</th>\n      </tr>\n    \n\n    <tr>\n      <th>Justine Harman</th>\n      <th>ECT</th>\n      <th>justineharman@hotmail.com</th>\n      </tr>\n    "}, {"location": "Karalee, Queensland, Australia", "lat": -27.568008, "lon": 152.815621, "n_therapists": 1, "html": "<h3><b>Karalee, Queensland, Australia</b><h3>\n  <table border=\"1\">\n  <tr>\n      <th>Name</th>\n      <th>Degree</th>\n      <th>Email</th>\n    </tr>\n\n    <tr>\n      <th>Emily Watson</th>\n      <th>BA</th>\n      <th>emily_watson1992@hotmail.com</th>\n      </tr>\n    "}, {"location": "Mackay, Queensland, Australia", "lat": -21.144192, "lon": 149.182075, "n_therapists": 2, "html": "<h3><b>Mackay, Queensland, Australia</b><h3>\n  <table border=\"1\">\n  <tr>\n      <th>Name</th>\n      <th>Degree</th>\n      <th>Email</th>\n    </tr>\n\n    <tr>\n      <th>Emma Barbagallo</th>\n      <th></th>\n      <th>emma.barbagallo@autismqld.com.au</th>\n      </tr>\n    \n\n    <tr>\n      <th>Kylie Smith</th>\n      <th>B.Ed</th>\n      <th>mackay@makingrainbows.com.au</th>\n      </tr>\n    "}, {"location": "Newcastle, NSW, Australia", "lat": -32.9278, "lon": 151.782607, "n_therapists": 2, "html": "<h3><b>Newcastle, NSW, Australia</b><h3>\n  <table border=\"1\">\n  <tr>\n      <th>Name</th>\n      <th>Degree</th>\n      <th>Email</th>\n    </tr>\n\n    <tr>\n      <th>Erin Byrnes</th>\n      <th>B.S</th>\n      <th>erinebyrnes@gmail.com</th>\n      </tr>\n    \n\n    <tr>\n      <th>Sarah Kelly</th>\n      <th>BA, OT</th>\n      <th>spectrumot@hotmail.com</th>\n      </tr>\n    "}, {"location": "Adamstown, New South Wales, Australia", "lat": -32.936736, "lon": 151.729979, "n_therapists": 1, "html": "<h3><b>Adamstown, New South Wales, Australia</b><h3>\n  <table border=\"1\">\n  <tr>\n      <th>Name</th>\n      <th>Degree</th>\n      <th>Email</th>\n    </tr>\n\n    <tr>\n      <th>Frances Dolan</th>\n      <th>BA OT</th>\n      <th>FRANCESDOLAN.OT@GMAIL.COM</th>\n      </tr>\n    "}, {"location": "Perth, Western Australia, Australia", "lat": -31.960773, "lon": 115.834088, "n_therapists": 2, "html": "<h3><b>Perth, Western Australia, Australia</b><h3>\n  <table border=\"1\">\n  <tr>\n      <th>Name</th>\n      <th>Degree</th>\n      <th>Email</th>\n    </tr>\n\n    <tr>\n      <th>Georgia Gray</th>\n      <th>BS</th>\n      <th>georgia.gray@stirlingspeech.com</th>\n      </tr>\n    \n\n    <tr>\n      <th>Kate Cameron</th>\n      <th>MA OT</th>\n      <th>Kate.Cameron@autism.org.au</th>\n      </tr>\n    "}, {"location": "Roxburgh park, Victoria, Australia", "lat": -37.62614, "lon": 144.926767, "n_therapists": 1, "html": "<h3><b>Roxburgh park, Victoria, Australia</b><h3>\n  <table border=\"1\">\n  <tr>\n      <th>Name</th>\n      <th>Degree</th>\n      <th>Email</th>\n    </tr>\n\n    <tr>\n      <th>Harpreet Kaur Bajwa</th>\n      <th></th>\n      <th>kharpreet0507@gmail.com</th>\n      </tr>\n    "}, {"location": "Sunnybank Hills, Queensland, Australia", "lat": -27.598013, "lon": 153.053749, "n_therapists": 1, "html": "<h3><b>Sunnybank Hills, Queensland, Australia</b><h3>\n  <table border=\"1\">\n  <tr>\n      <th>Name</th>\n      <th>Degree</th>\n      <th>Email</th>\n    </tr>\n\n    <tr>\n      <th>Hayley Hughes</th>\n      <th></th>\n      <th>hayley.hughes@autismqld.com.au</th>\n      </tr>\n    "}, {"location": "Macquarie Fileds, New South Wales, Australia", "lat": -33.02483, "lon": 151.508087, "n_therapists": 1, "html": "<h3><b>Macquarie Fileds, New South Wales, Australia</b><h3>\n  <table border=\"1\">\n  <tr>\n      <th>Name</th>\n      <th>Degree</th>\n      <th>Email</th>\n    </tr>\n\n    <tr>\n      <th>Jackie Saudinger</th>\n      <th>B.Ed</th>\n      <th>ku.macquariefields.director@ku.com.au</th>\n      </tr>\n    "}, {"location": "Hornsby, New South Wales, Australia", "lat": -33.700687, "lon": 151.092308, "n_therapists": 1, "html": "<h3><b>Hornsby, New South Wales, Australia</b><h3>\n  <table border=\"1\">\n  <tr>\n      <th>Name</th>\n      <th>Degree</th>\n      <th>Email</th>\n    </tr>\n\n    <tr>\n      <th>Jasmine Holland</th>\n      <th>MS, SpEd</th>\n      <th>jasmine.holland@ku.com.au</th>\n      </tr>\n    "}, {"location": "Gregory Hills, New South Wales, Australia", "lat": -34.036524, "lon": 150.796003, "n_therapists": 1, "html": "<h3><b>Gregory Hills, New South Wales, Australia</b><h3>\n  <table border=\"1\">\n  <tr>\n      <th>Name</th>\n      <th>Degree</th>\n      <th>Email</th>\n    </tr>\n\n    <tr>\n      <th>Jenelle Williams</th>\n      <th>M.Ed.</th>\n      <th>jenelle107@live.com.au</th>\n      </tr>\n    "}, {"location": "Brisbae, Queensland, Australia", "lat": -27.469309, "lon": 153.026164, "n_therapists": 1, "html": "<h3><b>Brisbae, Queensland, Australia</b><h3>\n  <table border=\"1\">\n  <tr>\n      <th>Name</th>\n      <th>Degree</th>\n      <th>Email</th>\n    </tr>\n\n    <tr>\n      <th>Jessica Sugarman</th>\n      <th>BA</th>\n      <th>jessica.sugarman@autismqld.com.au</th>\n      </tr>\n    "}, {"location": "Revesby Heights, New South Wales, Australia", "lat": -33.969355, "lon": 151.019078, "n_therapists": 1, "html": "<h3><b>Revesby Heights, New South Wales, Australia</b><h3>\n  <table border=\"1\">\n  <tr>\n      <th>Name</th>\n      <th>Degree</th>\n      <th>Email</th>\n    </tr>\n\n    <tr>\n      <th>Jessica Young</th>\n      <th>BA. Ed</th>\n      <th>jessica.young@ku.com.au</th>\n      </tr>\n    "}, {"location": "Kiama Downs, New South Whales, Australia", "lat": -34.641853, "lon": 150.849477, "n_therapists": 1, "html": "<h3><b>Kiama Downs, New South Whales, Australia</b><h3>\n  <table border=\"1\">\n  <tr>\n      <th>Name</th>\n      <th>Degree</th>\n      <th>Email</th>\n    </tr>\n\n    <tr>\n      <th>Jo Byron</th>\n      <th>BSc Hons Psy & Sp Path</th>\n      <th>info@starfishspeechpathology.com.au</th>\n      </tr>\n    "}, {"location": "St Kilda East, Victoria, Australia", "lat": -37.86419, "lon": 145.004248, "n_therapists": 1, "html": "<h3><b>St Kilda East, Victoria, Australia</b><h3>\n  <table border=\"1\">\n  <tr>\n      <th>Name</th>\n      <th>Degree</th>\n      <th>Email</th>\n    </tr>\n\n    <tr>\n      <th>Jose Molina</th>\n      <th></th>\n      <th>josemolinat@hotmail.com</th>\n      </tr>\n    "}, {"location": "Sunnybank, Queensland, Australia", "lat": -27.579412, "lon": 153.060147, "n_therapists": 1, "html": "<h3><b>Sunnybank, Queensland, Australia</b><h3>\n  <table border=\"1\">\n  <tr>\n      <th>Name</th>\n      <th>Degree</th>\n      <th>Email</th>\n    </tr>\n\n    <tr>\n      <th>Karly Green</th>\n      <th></th>\n      <th>karly.green@autismqld.com.au</th>\n      </tr>\n    "}, {"location": "Hurstbridge, Victoria, Australia", "lat": -37.628928, "lon": 145.181124, "n_therapists": 1, "html": "<h3><b>Hurstbridge, Victoria, Australia</b><h3>\n  <table border=\"1\">\n  <tr>\n      <th>Name</th>\n      <th>Degree</th>\n      <th>Email</th>\n    </tr>\n\n    <tr>\n      <th>Katherine Pye</th>\n      <th>MASc</th>\n      <th>k.pye@latrobe.edu.au</th>\n      </tr>\n    "}, {"location": "Northcote, Victoria, Australia", "lat": -37.772845, "lon": 145.000646, "n_therapists": 2, "html": "<h3><b>Northcote, Victoria, Australia</b><h3>\n  <table border=\"1\">\n  <tr>\n      <th>Name</th>\n      <th>Degree</th>\n      <th>Email</th>\n    </tr>\n\n    <tr>\n      <th>Kay Mcdonald</th>\n      <th>OT</th>\n      <th>kmcdonald@scopevic.org</th>\n      </tr>\n    \n\n    <tr>\n      <th>Liz Kirby</th>\n      <th></th>\n      <th>liz.kirby@gmail.com</th>\n      </tr>\n    "}, {"location": "Annandale, New South Wales, Australia", "lat": -33.881112, "lon": 151.171471, "n_therapists": 1, "html": "<h3><b>Annandale, New South Wales, Australia</b><h3>\n  <table border=\"1\">\n  <tr>\n      <th>Name</th>\n      <th>Degree</th>\n      <th>Email</th>\n    </tr>\n\n    <tr>\n      <th>Lauren Chang</th>\n      <th></th>\n      <th>lauren.gnahc@gmail.com</th>\n      </tr>\n    "}, {"location": "Cairns, Queensland, Australia", "lat": -16.922929, "lon": 145.775689, "n_therapists": 1, "html": "<h3><b>Cairns, Queensland, Australia</b><h3>\n  <table border=\"1\">\n  <tr>\n      <th>Name</th>\n      <th>Degree</th>\n      <th>Email</th>\n    </tr>\n\n    <tr>\n      <th>Lillian Kwong</th>\n      <th>MS</th>\n      <th>lillian.kwong@autismqld.com.au</th>\n      </tr>\n    "}, {"location": "Mildura, Victoria, Australia", "lat": -34.199704, "lon": 142.153732, "n_therapists": 1, "html": "<h3><b>Mildura, Victoria, Australia</b><h3>\n  <table border=\"1\">\n  <tr>\n      <th>Name</th>\n      <th>Degree</th>\n      <th>Email</th>\n    </tr>\n\n    <tr>\n      <th>Linda Phillips</th>\n      <th>B. App. Sc.</th>\n      <th>linda.j.phillips@hotmail.com</th>\n      </tr>\n    "}, {"location": "Mackay, QLD, Australia", "lat": -21.144192, "lon": 149.182075, "n_therapists": 2, "html": "<h3><b>Mackay, QLD, Australia</b><h3>\n  <table border=\"1\">\n  <tr>\n      <th>Name</th>\n      <th>Degree</th>\n      <th>Email</th>\n    </tr>\n\n    <tr>\n      <th>Luke Mitchell</th>\n      <th>BSpPATH</th>\n      <th>luke_mitchell1234@hotmail.com</th>\n      </tr>\n    \n\n    <tr>\n      <th>Simone Golding</th>\n      <th>BTCH</th>\n      <th>simone.golding@outlook.com</th>\n      </tr>\n    "}, {"location": "Lawson, New South Wales, Australia", "lat": -33.721697, "lon": 150.434012, "n_therapists": 1, "html": "<h3><b>Lawson, New South Wales, Australia</b><h3>\n  <table border=\"1\">\n  <tr>\n      <th>Name</th>\n      <th>Degree</th>\n      <th>Email</th>\n    </tr>\n\n    <tr>\n      <th>Margaret Cowper</th>\n      <th></th>\n      <th>margaret.cowper@connectcfs.org.au</th>\n      </tr>\n    "}, {"location": "Maroubra, New South Wales, Australia", "lat": -33.944809, "lon": 151.245905, "n_therapists": 1, "html": "<h3><b>Maroubra, New South Wales, Australia</b><h3>\n  <table border=\"1\">\n  <tr>\n      <th>Name</th>\n      <th>Degree</th>\n      <th>Email</th>\n    </tr>\n\n    <tr>\n      <th>Maryam Roghani</th>\n      <th>MA, BCBA</th>\n      <th>Maryam.roghanibc@gmail.com</th>\n      </tr>\n    "}, {"location": "Preston, Victoria, Australia", "lat": -37.741694, "lon": 145.007808, "n_therapists": 2, "html": "<h3><b>Preston, Victoria, Australia</b><h3>\n  <table border=\"1\">\n  <tr>\n      <th>Name</th>\n      <th>Degree</th>\n      <th>Email</th>\n    </tr>\n\n    <tr>\n      <th>Megan Sceriha</th>\n      <th>BHSsp</th>\n      <th>msceriha@hotmail.com</th>\n      </tr>\n    \n\n    <tr>\n      <th>Simone Gabriele</th>\n      <th>MSOT</th>\n      <th>simone@beststartclinic.com.au</th>\n      </tr>\n    "}, {"location": "Pearcedale, Victoria, Australia", "lat": -38.201358, "lon": 145.23453, "n_therapists": 1, "html": "<h3><b>Pearcedale, Victoria, Australia</b><h3>\n  <table border=\"1\">\n  <tr>\n      <th>Name</th>\n      <th>Degree</th>\n      <th>Email</th>\n    </tr>\n\n    <tr>\n      <th>Merae Atkin</th>\n      <th></th>\n      <th>merae.atkin@gmail.com</th>\n      </tr>\n    "}, {"location": "Stanwell Park, New South Wales, Australia", "lat": -34.230084, "lon": 150.982524, "n_therapists": 1, "html": "<h3><b>Stanwell Park, New South Wales, Australia</b><h3>\n  <table border=\"1\">\n  <tr>\n      <th>Name</th>\n      <th>Degree</th>\n      <th>Email</th>\n    </tr>\n\n    <tr>\n      <th>Sally Wilson</th>\n      <th>B.Ed, M.Ed</th>\n      <th>sally.wilson@ku.com.au</th>\n      </tr>\n    "}, {"location": "Perth, Washington, Australia", "lat": -31.960773, "lon": 115.834088, "n_therapists": 1, "html": "<h3><b>Perth, Washington, Australia</b><h3>\n  <table border=\"1\">\n  <tr>\n      <th>Name</th>\n      <th>Degree</th>\n      <th>Email</th>\n    </tr>\n\n    <tr>\n      <th>Shana Bargiev (nee Sylvester)</th>\n      <th>MA</th>\n      <th>shana.sylvester@autism.org.au</th>\n      </tr>\n    "}, {"location": "Northern Sydney, New South Wales, Australia", "lat": -33.78771, "lon": 151.2838, "n_therapists": 1, "html": "<h3><b>Northern Sydney, New South Wales, Australia</b><h3>\n  <table border=\"1\">\n  <tr>\n      <th>Name</th>\n      <th>Degree</th>\n      <th>Email</th>\n    </tr>\n\n    <tr>\n      <th>Stephanie Fischl</th>\n      <th>BA, LLB</th>\n      <th>stephanie@fischl.com.au</th>\n      </tr>\n    "}, {"location": "Seven Hills, New South Wales, Australia", "lat": -33.778576, "lon": 150.934163, "n_therapists": 1, "html": "<h3><b>Seven Hills, New South Wales, Australia</b><h3>\n  <table border=\"1\">\n  <tr>\n      <th>Name</th>\n      <th>Degree</th>\n      <th>Email</th>\n    </tr>\n\n    <tr>\n      <th>Tracey Pope</th>\n      <th></th>\n      <th>traceypope5@icloud.com</th>\n      </tr>\n    "}, {"location": "Wollongong, New South Whales, Australia", "lat": -34.428377, "lon": 150.893892, "n_therapists": 1, "html": "<h3><b>Wollongong, New South Whales, Australia</b><h3>\n  <table border=\"1\">\n  <tr>\n      <th>Name</th>\n      <th>Degree</th>\n      <th>Email</th>\n    </tr>\n\n    <tr>\n      <th>Maurghen Miller</th>\n      <th>MSc. BEd.</th>\n      <th>maurghen.miller@gmail.com</th>\n      </tr>\n    "}, {"location": "Parkes, New South Wales, Australia", "lat": -33.139833, "lon": 148.179809, "n_therapists": 1, "html": "<h3><b>Parkes, New South Wales, Australia</b><h3>\n  <table border=\"1\">\n  <tr>\n      <th>Name</th>\n      <th>Degree</th>\n      <th>Email</th>\n    </tr>\n\n    <tr>\n      <th>Helen Rowbotham</th>\n      <th>BS</th>\n      <th>helen@childsplayearlyintervention.com</th>\n      </tr>\n    "}, {"location": "Salzburg, Salzburg, Austria", "lat": 47.82287, "lon": 12.995288, "n_therapists": 6, "html": "<h3><b>Salzburg, Salzburg, Austria</b><h3>\n  <table border=\"1\">\n  <tr>\n      <th>Name</th>\n      <th>Degree</th>\n      <th>Email</th>\n    </tr>\n\n    <tr>\n      <th>Agnes Berner</th>\n      <th></th>\n      <th>agnes.berner@gmx.at</th>\n      </tr>\n    \n\n    <tr>\n      <th>Christine Stoellberger</th>\n      <th>BSc</th>\n      <th>christine.stoellberger@amb-lebenshilfe.at</th>\n      </tr>\n    \n\n    <tr>\n      <th>Evelyn Ulz</th>\n      <th>MSc, BSc</th>\n      <th>evelyn.ulz@amb-lebenshilfe.at</th>\n      </tr>\n    \n\n    <tr>\n      <th>Judith Sams</th>\n      <th>Mag</th>\n      <th>judith.sams@aon.at</th>\n      </tr>\n    \n\n    <tr>\n      <th>Nina Pichler</th>\n      <th>M ag.</th>\n      <th>Nina.pichler@amb-lebenshilfe.at</th>\n      </tr>\n    \n\n    <tr>\n      <th>Marc Zech</th>\n      <th>Dipl. Speech Therapy</th>\n      <th>marc.zech@amb-lebenshilfe.at</th>\n      </tr>\n    "}, {"location": "Seekirchen am Wallersee, Salzburg, Austria", "lat": 47.895868, "lon": 13.126541, "n_therapists": 1, "html": "<h3><b>Seekirchen am Wallersee, Salzburg, Austria</b><h3>\n  <table border=\"1\">\n  <tr>\n      <th>Name</th>\n      <th>Degree</th>\n      <th>Email</th>\n    </tr>\n\n    <tr>\n      <th>Angelika Schorn</th>\n      <th>MA</th>\n      <th>angelika.schorn@lebenshilfe-salzburg.at</th>\n      </tr>\n    "}, {"location": "Linz, Upper Austria, Austria", "lat": 48.284136, "lon": 14.306943, "n_therapists": 11, "html": "<h3><b>Linz, Upper Austria, Austria</b><h3>\n  <table border=\"1\">\n  <tr>\n      <th>Name</th>\n      <th>Degree</th>\n      <th>Email</th>\n    </tr>\n\n    <tr>\n      <th>Bernd Mattle</th>\n      <th></th>\n      <th>bernd.mattle@bblinz.at</th>\n      </tr>\n    \n\n    <tr>\n      <th>Christina Steininger</th>\n      <th>Mag Dr</th>\n      <th>christina.steininger@bblinz.at</th>\n      </tr>\n    \n\n    <tr>\n      <th>Dominik Laister</th>\n      <th>Mag</th>\n      <th>dominik.laister@bblinz.at</th>\n      </tr>\n    \n\n    <tr>\n      <th>Eva-Maria Dely</th>\n      <th></th>\n      <th>eva-maria.dely@bblinz.at</th>\n      </tr>\n    \n\n    <tr>\n      <th>Johanna Linimayr</th>\n      <th>BS/BA</th>\n      <th>johanna.linimayr@bblinz.at</th>\n      </tr>\n    \n\n    <tr>\n      <th>Kathrin Zinsmeister</th>\n      <th></th>\n      <th>kathrin.zinsmeister@bblinz.at</th>\n      </tr>\n    \n\n    <tr>\n      <th>Magdalena Stammler</th>\n      <th>Mag</th>\n      <th>magdalena.stammler@bblinz.at</th>\n      </tr>\n    \n\n    <tr>\n      <th>Martina Fuchs</th>\n      <th>SLP</th>\n      <th>martina.fuchs@bblinz.at</th>\n      </tr>\n    \n\n    <tr>\n      <th>Sabine Steinkogler</th>\n      <th>BA, BSC</th>\n      <th>sabine.steinkogler@bblinz.at</th>\n      </tr>\n    \n\n    <tr>\n      <th>Theresa Oberreiter</th>\n      <th></th>\n      <th>theresa.oberreiter@bblinz.at</th>\n      </tr>\n    \n\n    <tr>\n      <th>Verena Stehrer</th>\n      <th>BA, BSc</th>\n      <th>verena.stehrer@bblinz.at</th>\n      </tr>\n    "}, {"location": "Pfaffing, Upper Austria, Austria", "lat": 47.97136, "lon": 13.98954, "n_therapists": 1, "html": "<h3><b>Pfaffing, Upper Austria, Austria</b><h3>\n  <table border=\"1\">\n  <tr>\n      <th>Name</th>\n      <th>Degree</th>\n      <th>Email</th>\n    </tr>\n\n    <tr>\n      <th>Gertrud Kurz</th>\n      <th>BSc</th>\n      <th>gertrud.kurz@bblinz.at</th>\n      </tr>\n    "}, {"location": "Linz, Upper Australia, Austria", "lat": 48.284136, "lon": 14.306943, "n_therapists": 1, "html": "<h3><b>Linz, Upper Australia, Austria</b><h3>\n  <table border=\"1\">\n  <tr>\n      <th>Name</th>\n      <th>Degree</th>\n      <th>Email</th>\n    </tr>\n\n    <tr>\n      <th>Irina Grasser</th>\n      <th>BSc</th>\n      <th>irina.grasser@bblinz.at</th>\n      </tr>\n    "}, {"location": "Burmoos, Salzburg, Austria", "lat": 47.983898, "lon": 12.916088, "n_therapists": 1, "html": "<h3><b>Burmoos, Salzburg, Austria</b><h3>\n  <table border=\"1\">\n  <tr>\n      <th>Name</th>\n      <th>Degree</th>\n      <th>Email</th>\n    </tr>\n\n    <tr>\n      <th>Karin Erban-Eder</th>\n      <th></th>\n      <th>karin.erban-eder@outlook.com</th>\n      </tr>\n    "}, {"location": "Baku, , Azerbaijan", "lat": 40.378395, "lon": 49.840288, "n_therapists": 1, "html": "<h3><b>Baku, , Azerbaijan</b><h3>\n  <table border=\"1\">\n  <tr>\n      <th>Name</th>\n      <th>Degree</th>\n      <th>Email</th>\n    </tr>\n\n    <tr>\n      <th>Fidan Talishli</th>\n      <th></th>\n      <th>talychly_fidan@yahoo.com</th>\n      </tr>\n    "}, {"location": "Bruxelles, , Belgium", "lat": 50.843183, "lon": 4.371755, "n_therapists": 1, "html": "<h3><b>Bruxelles, , Belgium</b><h3>\n  <table border=\"1\">\n  <tr>\n      <th>Name</th>\n      <th>Degree</th>\n      <th>Email</th>\n    </tr>\n\n    <tr>\n      <th>Claudine De Mulder</th>\n      <th>MA</th>\n      <th>Claudine.demulder@huderf.be</th>\n      </tr>\n    "}, {"location": "Jambes, , Belgium", "lat": 50.465055, "lon": 4.859976, "n_therapists": 1, "html": "<h3><b>Jambes, , Belgium</b><h3>\n  <table border=\"1\">\n  <tr>\n      <th>Name</th>\n      <th>Degree</th>\n      <th>Email</th>\n    </tr>\n\n    <tr>\n      <th>Helene Colinet</th>\n      <th></th>\n      <th>Helene.colinet@hotmail.com</th>\n      </tr>\n    "}, {"location": "Leuven, , Belgium", "lat": 40.755884, "lon": -73.978504, "n_therapists": 1, "html": "<h3><b>Leuven, , Belgium</b><h3>\n  <table border=\"1\">\n  <tr>\n      <th>Name</th>\n      <th>Degree</th>\n      <th>Email</th>\n    </tr>\n\n    <tr>\n      <th>Jarymke Maljaars</th>\n      <th>PhD</th>\n      <th>jarymke.maljaars@ppw.kuleuven.be</th>\n      </tr>\n    "}, {"location": ", , Belgium", "lat": 50.780688, "lon": 4.792712, "n_therapists": 1, "html": "<h3><b>, , Belgium</b><h3>\n  <table border=\"1\">\n  <tr>\n      <th>Name</th>\n      <th>Degree</th>\n      <th>Email</th>\n    </tr>\n\n    <tr>\n      <th>Kathleen Smets</th>\n      <th></th>\n      <th>katleensmets@telenet.be</th>\n      </tr>\n    "}, {"location": "Brussels, , Belgium", "lat": 50.843183, "lon": 4.371755, "n_therapists": 1, "html": "<h3><b>Brussels, , Belgium</b><h3>\n  <table border=\"1\">\n  <tr>\n      <th>Name</th>\n      <th>Degree</th>\n      <th>Email</th>\n    </tr>\n\n    <tr>\n      <th>Maud Gilbert</th>\n      <th></th>\n      <th>maud.gilbert@huderf.be</th>\n      </tr>\n    "}, {"location": "Ghent, , Belgium", "lat": 51.057496, "lon": 3.732703, "n_therapists": 1, "html": "<h3><b>Ghent, , Belgium</b><h3>\n  <table border=\"1\">\n  <tr>\n      <th>Name</th>\n      <th>Degree</th>\n      <th>Email</th>\n    </tr>\n\n    <tr>\n      <th>Petra Warreyn</th>\n      <th>MA ClinPsych, DrPsych</th>\n      <th>petra.warreyn@ugent.be</th>\n      </tr>\n    "}, {"location": "Kraainem, , Belgium", "lat": 50.855488, "lon": 4.469186, "n_therapists": 1, "html": "<h3><b>Kraainem, , Belgium</b><h3>\n  <table border=\"1\">\n  <tr>\n      <th>Name</th>\n      <th>Degree</th>\n      <th>Email</th>\n    </tr>\n\n    <tr>\n      <th>Wivine Van Tichelen</th>\n      <th>MA</th>\n      <th>wivinevt@gmail.com</th>\n      </tr>\n    "}, {"location": "Salvador, Bahia, Brazil", "lat": -12.964413, "lon": -38.421936, "n_therapists": 1, "html": "<h3><b>Salvador, Bahia, Brazil</b><h3>\n  <table border=\"1\">\n  <tr>\n      <th>Name</th>\n      <th>Degree</th>\n      <th>Email</th>\n    </tr>\n\n    <tr>\n      <th>Ana Marta Vieira Ponte</th>\n      <th>Especialista de O.T.</th>\n      <th>anamartavieiraponte@gmail.com</th>\n      </tr>\n    "}, {"location": "Rio de Janeiro, , Brazil", "lat": -22.935024, "lon": -43.518246, "n_therapists": 1, "html": "<h3><b>Rio de Janeiro, , Brazil</b><h3>\n  <table border=\"1\">\n  <tr>\n      <th>Name</th>\n      <th>Degree</th>\n      <th>Email</th>\n    </tr>\n\n    <tr>\n      <th>Bruna Dias Neves</th>\n      <th>Higher Ed.</th>\n      <th>brunadnmanta@gmail.com</th>\n      </tr>\n    "}, {"location": "Rio de Janeiro, Rio de Janeiro, Brazil", "lat": -22.935024, "lon": -43.518246, "n_therapists": 2, "html": "<h3><b>Rio de Janeiro, Rio de Janeiro, Brazil</b><h3>\n  <table border=\"1\">\n  <tr>\n      <th>Name</th>\n      <th>Degree</th>\n      <th>Email</th>\n    </tr>\n\n    <tr>\n      <th>Carolina Salviano De Figueiredo</th>\n      <th>MS</th>\n      <th>contato@carolinasalviano.com.br</th>\n      </tr>\n    \n\n    <tr>\n      <th>P\u00e2mella Silva</th>\n      <th></th>\n      <th>pamoliveira.psi@gmail.com</th>\n      </tr>\n    "}, {"location": "Bras\u00edlia, Distrito Federal, Brazil", "lat": -15.803598, "lon": -47.903099, "n_therapists": 1, "html": "<h3><b>Bras\u00edlia, Distrito Federal, Brazil</b><h3>\n  <table border=\"1\">\n  <tr>\n      <th>Name</th>\n      <th>Degree</th>\n      <th>Email</th>\n    </tr>\n\n    <tr>\n      <th>Cintia Borges Navarro</th>\n      <th>PG</th>\n      <th>cintiaborgesnavarro@gmail.com</th>\n      </tr>\n    "}, {"location": "Curitiba, Parana, Brazil", "lat": -25.459935, "lon": -49.280018, "n_therapists": 1, "html": "<h3><b>Curitiba, Parana, Brazil</b><h3>\n  <table border=\"1\">\n  <tr>\n      <th>Name</th>\n      <th>Degree</th>\n      <th>Email</th>\n    </tr>\n\n    <tr>\n      <th>Edilici Ribeiro dos Santos Malucelli</th>\n      <th></th>\n      <th>edilici@espacocomunicar.com.br</th>\n      </tr>\n    "}, {"location": "Balne\u00e1rio Cambori\u00fa, Santa Catarina, Brazil", "lat": -27.022919, "lon": -48.598626, "n_therapists": 1, "html": "<h3><b>Balne\u00e1rio Cambori\u00fa, Santa Catarina, Brazil</b><h3>\n  <table border=\"1\">\n  <tr>\n      <th>Name</th>\n      <th>Degree</th>\n      <th>Email</th>\n    </tr>\n\n    <tr>\n      <th>Fernanda Lopes Chagas Weber</th>\n      <th></th>\n      <th>Fernandapsicologa@vivereclinicabc.com.br</th>\n      </tr>\n    "}, {"location": "Guarulhos, S\u00e3o Paulo, Brazil", "lat": -23.40239, "lon": -46.49705, "n_therapists": 2, "html": "<h3><b>Guarulhos, S\u00e3o Paulo, Brazil</b><h3>\n  <table border=\"1\">\n  <tr>\n      <th>Name</th>\n      <th>Degree</th>\n      <th>Email</th>\n    </tr>\n\n    <tr>\n      <th>Fernanda Cristina Reis Merli Martins</th>\n      <th>MA</th>\n      <th>fgafernanda@uol.com.br</th>\n      </tr>\n    \n\n    <tr>\n      <th>Marielaine Gimenes</th>\n      <th>MA</th>\n      <th>marielaine_merli@yahoo.com.br</th>\n      </tr>\n    "}, {"location": "Palmas, Tocantins, Brazil", "lat": -10.298928, "lon": -48.347463, "n_therapists": 1, "html": "<h3><b>Palmas, Tocantins, Brazil</b><h3>\n  <table border=\"1\">\n  <tr>\n      <th>Name</th>\n      <th>Degree</th>\n      <th>Email</th>\n    </tr>\n\n    <tr>\n      <th>Gisela Tebaldi Guedes de Moraes</th>\n      <th>Post Graduate</th>\n      <th>Gisela.tebaldi@yahoo.com.br</th>\n      </tr>\n    "}, {"location": "Ipatinga, Minas Gerais, Brazil", "lat": -19.49111, "lon": -42.556, "n_therapists": 1, "html": "<h3><b>Ipatinga, Minas Gerais, Brazil</b><h3>\n  <table border=\"1\">\n  <tr>\n      <th>Name</th>\n      <th>Degree</th>\n      <th>Email</th>\n    </tr>\n\n    <tr>\n      <th>Gleice Castro Nogueira</th>\n      <th>PGDip</th>\n      <th>gleicepsicologa@gmail.com</th>\n      </tr>\n    "}, {"location": "Cascavel, Parana, Brazil", "lat": -24.96001, "lon": -53.455156, "n_therapists": 1, "html": "<h3><b>Cascavel, Parana, Brazil</b><h3>\n  <table border=\"1\">\n  <tr>\n      <th>Name</th>\n      <th>Degree</th>\n      <th>Email</th>\n    </tr>\n\n    <tr>\n      <th>Ivanir Aparecida Caetano de Souza Warken</th>\n      <th>B.Sc.</th>\n      <th>ivawarken@terra.com.br</th>\n      </tr>\n    "}, {"location": "Balne\u00e1rio Cambori\u00fa, Santa Catarina - SC, Brazil", "lat": -27.022919, "lon": -48.598626, "n_therapists": 1, "html": "<h3><b>Balne\u00e1rio Cambori\u00fa, Santa Catarina - SC, Brazil</b><h3>\n  <table border=\"1\">\n  <tr>\n      <th>Name</th>\n      <th>Degree</th>\n      <th>Email</th>\n    </tr>\n\n    <tr>\n      <th>Jamara Dolzan</th>\n      <th>Postgraduate</th>\n      <th>jamara.seei@gmail.com</th>\n      </tr>\n    "}, {"location": "Sao Paulo, Sao Paulo, Brazil", "lat": -23.570533, "lon": -46.663713, "n_therapists": 1, "html": "<h3><b>Sao Paulo, Sao Paulo, Brazil</b><h3>\n  <table border=\"1\">\n  <tr>\n      <th>Name</th>\n      <th>Degree</th>\n      <th>Email</th>\n    </tr>\n\n    <tr>\n      <th>Mayra Gaiato</th>\n      <th>MA</th>\n      <th>mayragaiato@gmail.com</th>\n      </tr>\n    "}, {"location": "Brasilia, Distrito Federal, Brazil", "lat": -15.803598, "lon": -47.903099, "n_therapists": 1, "html": "<h3><b>Brasilia, Distrito Federal, Brazil</b><h3>\n  <table border=\"1\">\n  <tr>\n      <th>Name</th>\n      <th>Degree</th>\n      <th>Email</th>\n    </tr>\n\n    <tr>\n      <th>Michelle Proc\u00f3pio Villar</th>\n      <th>MA</th>\n      <th>michelleprocopio@gmail.com</th>\n      </tr>\n    "}, {"location": "Balneario Camburiu, Santa Catarina, Brazil", "lat": -27.022919, "lon": -48.598626, "n_therapists": 1, "html": "<h3><b>Balneario Camburiu, Santa Catarina, Brazil</b><h3>\n  <table border=\"1\">\n  <tr>\n      <th>Name</th>\n      <th>Degree</th>\n      <th>Email</th>\n    </tr>\n\n    <tr>\n      <th>Sinara Paniagua Pinto</th>\n      <th>Post Graduate</th>\n      <th>paniaguasinara@gmail.com</th>\n      </tr>\n    "}, {"location": "Porto Alegre, Rio Grande do Sul, Brazil", "lat": -30.099115, "lon": -51.179506, "n_therapists": 1, "html": "<h3><b>Porto Alegre, Rio Grande do Sul, Brazil</b><h3>\n  <table border=\"1\">\n  <tr>\n      <th>Name</th>\n      <th>Degree</th>\n      <th>Email</th>\n    </tr>\n\n    <tr>\n      <th>Thais dos Reis Bueno</th>\n      <th>MS</th>\n      <th>thaisdrb@hotmail.com</th>\n      </tr>\n    "}, {"location": "Hamilton, Ontario, Canada", "lat": 43.276797, "lon": -80.027986, "n_therapists": 4, "html": "<h3><b>Hamilton, Ontario, Canada</b><h3>\n  <table border=\"1\">\n  <tr>\n      <th>Name</th>\n      <th>Degree</th>\n      <th>Email</th>\n    </tr>\n\n    <tr>\n      <th>Amanda Patrick</th>\n      <th>MA, BA</th>\n      <th>mandy@alphabee.com</th>\n      </tr>\n    \n\n    <tr>\n      <th>Bradey Kankowski</th>\n      <th></th>\n      <th>bkankowski@gmail.com</th>\n      </tr>\n    \n\n    <tr>\n      <th>Laura Dignard</th>\n      <th>M.ADS, BCBA</th>\n      <th>laura@alphabee.com</th>\n      </tr>\n    \n\n    <tr>\n      <th>Crystal Ferrier</th>\n      <th>MA</th>\n      <th>crystalferrier@gmail.com</th>\n      </tr>\n    "}, {"location": "Calgary, Alberta, Canada", "lat": 51.056508, "lon": -114.033822, "n_therapists": 1, "html": "<h3><b>Calgary, Alberta, Canada</b><h3>\n  <table border=\"1\">\n  <tr>\n      <th>Name</th>\n      <th>Degree</th>\n      <th>Email</th>\n    </tr>\n\n    <tr>\n      <th>Arianna Bailey</th>\n      <th>MS, R.SLP, SLPC</th>\n      <th>arianna@Ability4Good.com</th>\n      </tr>\n    "}, {"location": "Toronto, Ontario, Canada", "lat": 43.64877, "lon": -79.38171, "n_therapists": 13, "html": "<h3><b>Toronto, Ontario, Canada</b><h3>\n  <table border=\"1\">\n  <tr>\n      <th>Name</th>\n      <th>Degree</th>\n      <th>Email</th>\n    </tr>\n\n    <tr>\n      <th>Cheryl Libman</th>\n      <th>M.Ed</th>\n      <th>cheryl.libman@isand.ca</th>\n      </tr>\n    \n\n    <tr>\n      <th>Jennifer Boyne</th>\n      <th>MS, BCBA</th>\n      <th>boynej@tcd.ie</th>\n      </tr>\n    \n\n    <tr>\n      <th>Lauren Strub</th>\n      <th>M.Sc.</th>\n      <th>lauren.strub@isand.ca</th>\n      </tr>\n    \n\n    <tr>\n      <th>Ling Ly Tan</th>\n      <th>M.ADS</th>\n      <th>ling.lytan@gmail.com</th>\n      </tr>\n    \n\n    <tr>\n      <th>Lisa Kota</th>\n      <th>M.ADS, BCBA</th>\n      <th>lisa@alphabee.com</th>\n      </tr>\n    \n\n    <tr>\n      <th>Nona Davis</th>\n      <th></th>\n      <th></th>\n      </tr>\n    \n\n    <tr>\n      <th>Pam Lawrynowcyz</th>\n      <th>MA, BCBA</th>\n      <th>pam@alphabee.com</th>\n      </tr>\n    \n\n    <tr>\n      <th>Randi Atlas</th>\n      <th>BA</th>\n      <th>atlas.randi@gmail.com</th>\n      </tr>\n    \n\n    <tr>\n      <th>Samantha Daney</th>\n      <th>MA, BS</th>\n      <th>samdaney@gmail.com</th>\n      </tr>\n    \n\n    <tr>\n      <th>Sami Beale</th>\n      <th></th>\n      <th>samilbeale@gmail.com</th>\n      </tr>\n    \n\n    <tr>\n      <th>Shelley Mitchell</th>\n      <th>PhD</th>\n      <th>shelley.mitchell@isand.ca</th>\n      </tr>\n    \n\n    <tr>\n      <th>Sonia Stellato</th>\n      <th>M.ADS, BCBA</th>\n      <th>sonia@alphabee.com</th>\n      </tr>\n    \n\n    <tr>\n      <th>Laurie Vismara</th>\n      <th>PhD, BCBA-D</th>\n      <th>laurie.vismara@gmail.com</th>\n      </tr>\n    "}, {"location": "Vancouver, British Columbia, Canada", "lat": 49.2819, "lon": -123.11874, "n_therapists": 6, "html": "<h3><b>Vancouver, British Columbia, Canada</b><h3>\n  <table border=\"1\">\n  <tr>\n      <th>Name</th>\n      <th>Degree</th>\n      <th>Email</th>\n    </tr>\n\n    <tr>\n      <th>Christina Saporito</th>\n      <th>M.Ed</th>\n      <th>c.saporito16@gmail.com</th>\n      </tr>\n    \n\n    <tr>\n      <th>Joanna Chinn</th>\n      <th>M.Ed., BCBA</th>\n      <th>joanna@constructivepathways.ca</th>\n      </tr>\n    \n\n    <tr>\n      <th>Kate Ballem Chase</th>\n      <th>BS, MS, Ph.D</th>\n      <th>kdbchase@gmail.com</th>\n      </tr>\n    \n\n    <tr>\n      <th>Maria Sample (Turner)</th>\n      <th>MA, BCBA</th>\n      <th>mariasampleaba@gmail.com</th>\n      </tr>\n    \n\n    <tr>\n      <th>Patty Zimmerman</th>\n      <th>B.Sc (OT)</th>\n      <th>patty@nurturelearn.ca</th>\n      </tr>\n    \n\n    <tr>\n      <th>Wendy Hansen</th>\n      <th>M.Sc</th>\n      <th>wendy@nurturelearn.ca</th>\n      </tr>\n    "}, {"location": "Montr\u00e9al, Qu\u00e9bec, Canada", "lat": 45.572744, "lon": -73.586295, "n_therapists": 3, "html": "<h3><b>Montr\u00e9al, Qu\u00e9bec, Canada</b><h3>\n  <table border=\"1\">\n  <tr>\n      <th>Name</th>\n      <th>Degree</th>\n      <th>Email</th>\n    </tr>\n\n    <tr>\n      <th>Emma Veteau</th>\n      <th>DESS</th>\n      <th>veteauemma@gmail.com</th>\n      </tr>\n    \n\n    <tr>\n      <th>Ga\u00efd-Anne Gaillard</th>\n      <th>MA</th>\n      <th>Gaid.gaillard@gmail.com</th>\n      </tr>\n    \n\n    <tr>\n      <th>Constance Guihard</th>\n      <th>DESS</th>\n      <th>guihardconstance@gmail.com</th>\n      </tr>\n    "}, {"location": "New Westminster, British Columbia, Canada", "lat": 49.208725, "lon": -122.91832, "n_therapists": 2, "html": "<h3><b>New Westminster, British Columbia, Canada</b><h3>\n  <table border=\"1\">\n  <tr>\n      <th>Name</th>\n      <th>Degree</th>\n      <th>Email</th>\n    </tr>\n\n    <tr>\n      <th>Gabrielle Stigant</th>\n      <th>M.Ed, BCBA</th>\n      <th>gabriellestigant@shaw.ca</th>\n      </tr>\n    \n\n    <tr>\n      <th>Sherise Devine</th>\n      <th>MS, BCBA</th>\n      <th>sherise@devinebehaviourconsulting.ca</th>\n      </tr>\n    "}, {"location": "Montreal, Qu\u00e9bec, Canada", "lat": 45.572744, "lon": -73.586295, "n_therapists": 1, "html": "<h3><b>Montreal, Qu\u00e9bec, Canada</b><h3>\n  <table border=\"1\">\n  <tr>\n      <th>Name</th>\n      <th>Degree</th>\n      <th>Email</th>\n    </tr>\n\n    <tr>\n      <th>Gisela Regli</th>\n      <th>DESS</th>\n      <th>gr@cocon.ca</th>\n      </tr>\n    "}, {"location": "Windsor, Ontario, Canada", "lat": 42.28382, "lon": -82.997089, "n_therapists": 1, "html": "<h3><b>Windsor, Ontario, Canada</b><h3>\n  <table border=\"1\">\n  <tr>\n      <th>Name</th>\n      <th>Degree</th>\n      <th>Email</th>\n    </tr>\n\n    <tr>\n      <th>Hellena Hebert</th>\n      <th>MS</th>\n      <th>hhebert@summitcentre.org</th>\n      </tr>\n    "}, {"location": "Maple Ridge, British Columbia, Canada", "lat": 49.260165, "lon": -122.513304, "n_therapists": 1, "html": "<h3><b>Maple Ridge, British Columbia, Canada</b><h3>\n  <table border=\"1\">\n  <tr>\n      <th>Name</th>\n      <th>Degree</th>\n      <th>Email</th>\n    </tr>\n\n    <tr>\n      <th>Hilary McClinton</th>\n      <th>M.Ed, BCBA</th>\n      <th>hilary.mcclinton@gmail.com</th>\n      </tr>\n    "}, {"location": "Duncan, British Columbia, Canada", "lat": 48.776298, "lon": -123.694846, "n_therapists": 2, "html": "<h3><b>Duncan, British Columbia, Canada</b><h3>\n  <table border=\"1\">\n  <tr>\n      <th>Name</th>\n      <th>Degree</th>\n      <th>Email</th>\n    </tr>\n\n    <tr>\n      <th>Janet Harder</th>\n      <th>MSLP, BCBA</th>\n      <th>jhmj@jhcoaching-consulting.com</th>\n      </tr>\n    \n\n    <tr>\n      <th>Kyla Swanston</th>\n      <th>M.Ed SpEd</th>\n      <th>kyla@bridgesslpbcservices.com</th>\n      </tr>\n    "}, {"location": "Thornhill, Ontario, Canada", "lat": 43.820285, "lon": -79.429779, "n_therapists": 1, "html": "<h3><b>Thornhill, Ontario, Canada</b><h3>\n  <table border=\"1\">\n  <tr>\n      <th>Name</th>\n      <th>Degree</th>\n      <th>Email</th>\n    </tr>\n\n    <tr>\n      <th>Jennifer Levine</th>\n      <th>BA, BSc(OT), OT Reg. (Ont.)</th>\n      <th>jennifer@kidtherapy.ca</th>\n      </tr>\n    "}, {"location": "Carp, Ontario, Canada", "lat": 45.346197, "lon": -76.035436, "n_therapists": 1, "html": "<h3><b>Carp, Ontario, Canada</b><h3>\n  <table border=\"1\">\n  <tr>\n      <th>Name</th>\n      <th>Degree</th>\n      <th>Email</th>\n    </tr>\n\n    <tr>\n      <th>Kimberley Moore</th>\n      <th>B.A., M.ADS, BCBA</th>\n      <th>kmoorebcba@gmail.com</th>\n      </tr>\n    "}, {"location": "North Bay, Ontario, Canada", "lat": 46.373112, "lon": -79.4291, "n_therapists": 4, "html": "<h3><b>North Bay, Ontario, Canada</b><h3>\n  <table border=\"1\">\n  <tr>\n      <th>Name</th>\n      <th>Degree</th>\n      <th>Email</th>\n    </tr>\n\n    <tr>\n      <th>Lindsay McLean</th>\n      <th>M.Sc., HBKin</th>\n      <th>esdm.north@gmail.com</th>\n      </tr>\n    \n\n    <tr>\n      <th>Natalie Lemay</th>\n      <th>M.Sc.S.</th>\n      <th>NatalieL@onekidsplace.ca</th>\n      </tr>\n    \n\n    <tr>\n      <th>Natasha Roy</th>\n      <th>M.Sc.S.</th>\n      <th>natashar@onekidsplace.ca</th>\n      </tr>\n    \n\n    <tr>\n      <th>Suzanne Denis</th>\n      <th>M.Sc., BASC</th>\n      <th>suzanned@onekidsplace.ca</th>\n      </tr>\n    "}, {"location": "Mississauga, Ontario, Canada", "lat": 43.570452, "lon": -79.626636, "n_therapists": 1, "html": "<h3><b>Mississauga, Ontario, Canada</b><h3>\n  <table border=\"1\">\n  <tr>\n      <th>Name</th>\n      <th>Degree</th>\n      <th>Email</th>\n    </tr>\n\n    <tr>\n      <th>Martin Bergie</th>\n      <th>BS, MS</th>\n      <th>martin.bergie@utoronto.ca</th>\n      </tr>\n    "}, {"location": "Comox, British Columbia, Canada", "lat": 49.714871, "lon": -124.894831, "n_therapists": 1, "html": "<h3><b>Comox, British Columbia, Canada</b><h3>\n  <table border=\"1\">\n  <tr>\n      <th>Name</th>\n      <th>Degree</th>\n      <th>Email</th>\n    </tr>\n\n    <tr>\n      <th>Mary McKenna</th>\n      <th>M.Sc, SLP, BCBA</th>\n      <th>maryslpbcba@gmail.com</th>\n      </tr>\n    "}, {"location": "Victoria, British Columbia, Canada", "lat": 48.428362, "lon": -123.358788, "n_therapists": 1, "html": "<h3><b>Victoria, British Columbia, Canada</b><h3>\n  <table border=\"1\">\n  <tr>\n      <th>Name</th>\n      <th>Degree</th>\n      <th>Email</th>\n    </tr>\n\n    <tr>\n      <th>Michaela Jelen</th>\n      <th>M.Ed., BCR</th>\n      <th>jelenmichaela@gmail.com</th>\n      </tr>\n    "}, {"location": "Ottawa, Ontario, Canada", "lat": 45.209415, "lon": -75.783876, "n_therapists": 2, "html": "<h3><b>Ottawa, Ontario, Canada</b><h3>\n  <table border=\"1\">\n  <tr>\n      <th>Name</th>\n      <th>Degree</th>\n      <th>Email</th>\n    </tr>\n\n    <tr>\n      <th>Rachael Riethman</th>\n      <th></th>\n      <th>connectingearly@gmail.com</th>\n      </tr>\n    \n\n    <tr>\n      <th>Jocelyn Boileau</th>\n      <th>MA</th>\n      <th>jboileau@actlearningcentre.ca</th>\n      </tr>\n    "}, {"location": "Montreal, Quebec, Canada", "lat": 45.572744, "lon": -73.586295, "n_therapists": 1, "html": "<h3><b>Montreal, Quebec, Canada</b><h3>\n  <table border=\"1\">\n  <tr>\n      <th>Name</th>\n      <th>Degree</th>\n      <th>Email</th>\n    </tr>\n\n    <tr>\n      <th>Rahma Hammami</th>\n      <th>DESS</th>\n      <th>rahma.hammami@outlook.com</th>\n      </tr>\n    "}, {"location": "Burnaby, British Columbia, Canada", "lat": 49.248223, "lon": -122.966319, "n_therapists": 1, "html": "<h3><b>Burnaby, British Columbia, Canada</b><h3>\n  <table border=\"1\">\n  <tr>\n      <th>Name</th>\n      <th>Degree</th>\n      <th>Email</th>\n    </tr>\n\n    <tr>\n      <th>Sara Shababi</th>\n      <th>MA SpEd</th>\n      <th>sshababi@abacentre.ca</th>\n      </tr>\n    "}, {"location": "York Region/Toronto, Ontario, Canada", "lat": 44.00011, "lon": -79.46632, "n_therapists": 1, "html": "<h3><b>York Region/Toronto, Ontario, Canada</b><h3>\n  <table border=\"1\">\n  <tr>\n      <th>Name</th>\n      <th>Degree</th>\n      <th>Email</th>\n    </tr>\n\n    <tr>\n      <th>Stacey Baskind</th>\n      <th>MA, BCBA</th>\n      <th>stacey@kidsconnecting.ca</th>\n      </tr>\n    "}, {"location": "Otawa, Ontario, Canada", "lat": 45.209415, "lon": -75.783876, "n_therapists": 1, "html": "<h3><b>Otawa, Ontario, Canada</b><h3>\n  <table border=\"1\">\n  <tr>\n      <th>Name</th>\n      <th>Degree</th>\n      <th>Email</th>\n    </tr>\n\n    <tr>\n      <th>Veronique Chiasson</th>\n      <th>OT</th>\n      <th>vchiasson@emergingminds.ca</th>\n      </tr>\n    "}, {"location": "West Kelowna, British Columbia, Canada", "lat": 49.900332, "lon": -119.580727, "n_therapists": 1, "html": "<h3><b>West Kelowna, British Columbia, Canada</b><h3>\n  <table border=\"1\">\n  <tr>\n      <th>Name</th>\n      <th>Degree</th>\n      <th>Email</th>\n    </tr>\n\n    <tr>\n      <th>Marie Sleboda</th>\n      <th>M. Sc, BCBA</th>\n      <th>slebodamarie@gmail.com</th>\n      </tr>\n    "}, {"location": "George Town, South Town, Cayman Islands", "lat": 19.65939, "lon": -80.08382, "n_therapists": 3, "html": "<h3><b>George Town, South Town, Cayman Islands</b><h3>\n  <table border=\"1\">\n  <tr>\n      <th>Name</th>\n      <th>Degree</th>\n      <th>Email</th>\n    </tr>\n\n    <tr>\n      <th>Dorett Simms</th>\n      <th>MA</th>\n      <th>dsimms@wellnesscentre.ky</th>\n      </tr>\n    \n\n    <tr>\n      <th>Shannon Seymour</th>\n      <th>MA</th>\n      <th>sseymour@wellnesscentre.ky</th>\n      </tr>\n    \n\n    <tr>\n      <th>Sloane Pharr</th>\n      <th>MA., BCBA</th>\n      <th>spharr@wellnesscentre.ky</th>\n      </tr>\n    "}, {"location": "Temuco, Chile, Chile", "lat": -4.883137, "lon": -38.454578, "n_therapists": 1, "html": "<h3><b>Temuco, Chile, Chile</b><h3>\n  <table border=\"1\">\n  <tr>\n      <th>Name</th>\n      <th>Degree</th>\n      <th>Email</th>\n    </tr>\n\n    <tr>\n      <th>Diego Pablo Gonz\u00e1lez Lagos</th>\n      <th>OT</th>\n      <th>todiegogl@gmail.com</th>\n      </tr>\n    "}, {"location": "Santiago, , Chile", "lat": -33.428532, "lon": -70.630133, "n_therapists": 1, "html": "<h3><b>Santiago, , Chile</b><h3>\n  <table border=\"1\">\n  <tr>\n      <th>Name</th>\n      <th>Degree</th>\n      <th>Email</th>\n    </tr>\n\n    <tr>\n      <th>Pamela Pinto</th>\n      <th></th>\n      <th>pamelapintogomez@gmail.com</th>\n      </tr>\n    "}, {"location": "Shanghai, , China", "lat": 31.246027, "lon": 121.483385, "n_therapists": 1, "html": "<h3><b>Shanghai, , China</b><h3>\n  <table border=\"1\">\n  <tr>\n      <th>Name</th>\n      <th>Degree</th>\n      <th>Email</th>\n    </tr>\n\n    <tr>\n      <th>Qiong Xu</th>\n      <th>MD PhD</th>\n      <th>stellaxuqiong@hotmail.com</th>\n      </tr>\n    "}, {"location": "Xiamen, Fujian, China", "lat": 24.489945, "lon": 118.103833, "n_therapists": 1, "html": "<h3><b>Xiamen, Fujian, China</b><h3>\n  <table border=\"1\">\n  <tr>\n      <th>Name</th>\n      <th>Degree</th>\n      <th>Email</th>\n    </tr>\n\n    <tr>\n      <th>Sophia Xiang Sun</th>\n      <th>MD, MMed, MPhil, PhD</th>\n      <th>13702897@qq.com</th>\n      </tr>\n    "}, {"location": "Guangzhou, Guangdong Province, China", "lat": 23.113511, "lon": 113.289942, "n_therapists": 1, "html": "<h3><b>Guangzhou, Guangdong Province, China</b><h3>\n  <table border=\"1\">\n  <tr>\n      <th>Name</th>\n      <th>Degree</th>\n      <th>Email</th>\n    </tr>\n\n    <tr>\n      <th>Yuanyue Xu</th>\n      <th>M.Ed.</th>\n      <th>Yuanyuexu@foxmail.com</th>\n      </tr>\n    "}, {"location": "Copenhagen, Copenhagen, Denmark", "lat": 55.704438, "lon": 12.502119, "n_therapists": 1, "html": "<h3><b>Copenhagen, Copenhagen, Denmark</b><h3>\n  <table border=\"1\">\n  <tr>\n      <th>Name</th>\n      <th>Degree</th>\n      <th>Email</th>\n    </tr>\n\n    <tr>\n      <th>Saule Westenholz</th>\n      <th></th>\n      <th>sw@autismesupport.dk</th>\n      </tr>\n    "}, {"location": "Copenhagen, , Denmark", "lat": 55.704438, "lon": 12.502119, "n_therapists": 1, "html": "<h3><b>Copenhagen, , Denmark</b><h3>\n  <table border=\"1\">\n  <tr>\n      <th>Name</th>\n      <th>Degree</th>\n      <th>Email</th>\n    </tr>\n\n    <tr>\n      <th>Signe Damsgaard</th>\n      <th>MA</th>\n      <th>mail@signedamsgaard.dk</th>\n      </tr>\n    "}, {"location": "Quito, Pichincha, Ecuador", "lat": -0.22985, "lon": -78.52495, "n_therapists": 1, "html": "<h3><b>Quito, Pichincha, Ecuador</b><h3>\n  <table border=\"1\">\n  <tr>\n      <th>Name</th>\n      <th>Degree</th>\n      <th>Email</th>\n    </tr>\n\n    <tr>\n      <th>Cristina Alexandra Armijos Pazmi\u00f1o</th>\n      <th>MA</th>\n      <th>cris_armijos@hotmail.com</th>\n      </tr>\n    "}, {"location": "Pamplona, Navarra, Espa\u00f1a", "lat": 42.817546, "lon": -1.651163, "n_therapists": 1, "html": "<h3><b>Pamplona, Navarra, Espa\u00f1a</b><h3>\n  <table border=\"1\">\n  <tr>\n      <th>Name</th>\n      <th>Degree</th>\n      <th>Email</th>\n    </tr>\n\n    <tr>\n      <th>Amaya N\u00fa\u00f1ez Galar</th>\n      <th></th>\n      <th>amaya.ana@autismonavarra.com</th>\n      </tr>\n    "}, {"location": "Lyon, Rh\u00f4ne Alpes, France", "lat": 45.732398, "lon": 4.835571, "n_therapists": 8, "html": "<h3><b>Lyon, Rh\u00f4ne Alpes, France</b><h3>\n  <table border=\"1\">\n  <tr>\n      <th>Name</th>\n      <th>Degree</th>\n      <th>Email</th>\n    </tr>\n\n    <tr>\n      <th>Andr\u00e9a Fossati</th>\n      <th></th>\n      <th>fossati.andrea03@gmail.com</th>\n      </tr>\n    \n\n    <tr>\n      <th>Ariane Toselli</th>\n      <th></th>\n      <th>ariane_toselli@yahoo.fr</th>\n      </tr>\n    \n\n    <tr>\n      <th>Celine Jacob -Grosmaitre</th>\n      <th>MA</th>\n      <th>c.jacobgrosmaitre@gmail.com</th>\n      </tr>\n    \n\n    <tr>\n      <th>Chlo\u00e9 Peter</th>\n      <th>MA</th>\n      <th>chloe.peter@ch-le-vinatier.fr</th>\n      </tr>\n    \n\n    <tr>\n      <th>G\u00e9raldine Malpesa</th>\n      <th>MA</th>\n      <th>geraldinemalpesa@gmail.com</th>\n      </tr>\n    \n\n    <tr>\n      <th>Juliette Cosnier</th>\n      <th></th>\n      <th>juliettecosnier@hotmail.com</th>\n      </tr>\n    \n\n    <tr>\n      <th>Marie Dominique Verpoix</th>\n      <th>MA</th>\n      <th>mariedo.verpoix@gmail.com</th>\n      </tr>\n    \n\n    <tr>\n      <th>Sonia Kouyate</th>\n      <th></th>\n      <th>soniakouyate@hotmail.com</th>\n      </tr>\n    "}, {"location": "Strasbourg, , France", "lat": 48.570721, "lon": 7.758374, "n_therapists": 5, "html": "<h3><b>Strasbourg, , France</b><h3>\n  <table border=\"1\">\n  <tr>\n      <th>Name</th>\n      <th>Degree</th>\n      <th>Email</th>\n    </tr>\n\n    <tr>\n      <th>Anna Dubrovskaya</th>\n      <th>PhD</th>\n      <th>anna_dub@hotmail.com</th>\n      </tr>\n    \n\n    <tr>\n      <th>Emilie Florence</th>\n      <th>MA</th>\n      <th>emilie.florence@wanadoo.fr</th>\n      </tr>\n    \n\n    <tr>\n      <th>Lucie Janssen</th>\n      <th></th>\n      <th></th>\n      </tr>\n    \n\n    <tr>\n      <th>Monique Rohmer</th>\n      <th>BA</th>\n      <th>monique.rohmer@chu-strasbourg.fr</th>\n      </tr>\n    \n\n    <tr>\n      <th>Veron Benedicte</th>\n      <th></th>\n      <th>Benedicte.lambs@chru-strasbourg.fr</th>\n      </tr>\n    "}, {"location": "Bouaye, , France", "lat": 47.142744, "lon": -1.682503, "n_therapists": 1, "html": "<h3><b>Bouaye, , France</b><h3>\n  <table border=\"1\">\n  <tr>\n      <th>Name</th>\n      <th>Degree</th>\n      <th>Email</th>\n    </tr>\n\n    <tr>\n      <th>Anne Lumiere Banchereau</th>\n      <th></th>\n      <th>valuban@orange.fr</th>\n      </tr>\n    "}, {"location": "Marseille, , France", "lat": 43.295314, "lon": 5.401581, "n_therapists": 2, "html": "<h3><b>Marseille, , France</b><h3>\n  <table border=\"1\">\n  <tr>\n      <th>Name</th>\n      <th>Degree</th>\n      <th>Email</th>\n    </tr>\n\n    <tr>\n      <th>Anne Marie Bartolini-Girardot</th>\n      <th>MA</th>\n      <th>annemarie.girardot@live.fr</th>\n      </tr>\n    \n\n    <tr>\n      <th>Clarisse Chatel Garriot</th>\n      <th>Ph.D</th>\n      <th>clarisse.chatel@ap-hm.fr</th>\n      </tr>\n    "}, {"location": "Villeurbanne, Rh\u00f4ne, France", "lat": 45.771418, "lon": 4.88534, "n_therapists": 3, "html": "<h3><b>Villeurbanne, Rh\u00f4ne, France</b><h3>\n  <table border=\"1\">\n  <tr>\n      <th>Name</th>\n      <th>Degree</th>\n      <th>Email</th>\n    </tr>\n\n    <tr>\n      <th>Anne-Laure Cousyn</th>\n      <th>MA</th>\n      <th>alcousyn@gmail.com</th>\n      </tr>\n    \n\n    <tr>\n      <th>Julie Magnard</th>\n      <th>MS</th>\n      <th>julie.magnard@ch-le-vinatier.fr</th>\n      </tr>\n    \n\n    <tr>\n      <th>Morgane Amate</th>\n      <th>MA</th>\n      <th>Morgane.amate@ch-le-vinatier.fr</th>\n      </tr>\n    "}, {"location": "Angers, France, France", "lat": 47.466354, "lon": -0.547184, "n_therapists": 1, "html": "<h3><b>Angers, France, France</b><h3>\n  <table border=\"1\">\n  <tr>\n      <th>Name</th>\n      <th>Degree</th>\n      <th>Email</th>\n    </tr>\n\n    <tr>\n      <th>Anne-Sophie Pernell</th>\n      <th></th>\n      <th>ansopernel@hotmail.fr</th>\n      </tr>\n    "}, {"location": "Toulouse, Midi-Pyr\u00e9n\u00e9es, France", "lat": 43.603902, "lon": 1.440694, "n_therapists": 1, "html": "<h3><b>Toulouse, Midi-Pyr\u00e9n\u00e9es, France</b><h3>\n  <table border=\"1\">\n  <tr>\n      <th>Name</th>\n      <th>Degree</th>\n      <th>Email</th>\n    </tr>\n\n    <tr>\n      <th>Audrey Gelard</th>\n      <th>MA</th>\n      <th>audrey.gelard@gmail.com</th>\n      </tr>\n    "}, {"location": "Bron, , France", "lat": 45.734116, "lon": 4.911977, "n_therapists": 1, "html": "<h3><b>Bron, , France</b><h3>\n  <table border=\"1\">\n  <tr>\n      <th>Name</th>\n      <th>Degree</th>\n      <th>Email</th>\n    </tr>\n\n    <tr>\n      <th>Audrey Renaudineau</th>\n      <th></th>\n      <th>gerifaudrey@yahoo.fr</th>\n      </tr>\n    "}, {"location": ", , France", "lat": 46.698481, "lon": 2.549047, "n_therapists": 6, "html": "<h3><b>, , France</b><h3>\n  <table border=\"1\">\n  <tr>\n      <th>Name</th>\n      <th>Degree</th>\n      <th>Email</th>\n    </tr>\n\n    <tr>\n      <th>Audrey Richier</th>\n      <th></th>\n      <th>audrey.richier@ch-le-vinatier.fr</th>\n      </tr>\n    \n\n    <tr>\n      <th>Flavia Mengarelli</th>\n      <th></th>\n      <th>flavia.mengarelli@ch-le-vinatier.fr</th>\n      </tr>\n    \n\n    <tr>\n      <th>Ga\u00eblle Borron</th>\n      <th></th>\n      <th>gaelle.borron@ch-le-vinatier.fr</th>\n      </tr>\n    \n\n    <tr>\n      <th>Lucie Schmitt</th>\n      <th></th>\n      <th>schmitt.lucie@neuf.fr</th>\n      </tr>\n    \n\n    <tr>\n      <th>Marie-Joelle Or\u00eave</th>\n      <th></th>\n      <th>mjoelleoreve@gmail.com</th>\n      </tr>\n    \n\n    <tr>\n      <th>Valentin Beaujeard</th>\n      <th></th>\n      <th>valentin.beaujeard@ch-le-vinatier.fr</th>\n      </tr>\n    "}, {"location": "LE VESINET, YVELINES, France", "lat": 48.894522, "lon": 2.130619, "n_therapists": 1, "html": "<h3><b>LE VESINET, YVELINES, France</b><h3>\n  <table border=\"1\">\n  <tr>\n      <th>Name</th>\n      <th>Degree</th>\n      <th>Email</th>\n    </tr>\n\n    <tr>\n      <th>Barbara Le Corre</th>\n      <th>Occupational Therapy</th>\n      <th>bp278@yahoo.fr</th>\n      </tr>\n    "}, {"location": "Toulouse, Midi Pyr\u00e9n\u00e9es, France", "lat": 43.603902, "lon": 1.440694, "n_therapists": 4, "html": "<h3><b>Toulouse, Midi Pyr\u00e9n\u00e9es, France</b><h3>\n  <table border=\"1\">\n  <tr>\n      <th>Name</th>\n      <th>Degree</th>\n      <th>Email</th>\n    </tr>\n\n    <tr>\n      <th>Bernadette Rog\u00e9</th>\n      <th>PhD</th>\n      <th>roge@univ-tlse2.fr</th>\n      </tr>\n    \n\n    <tr>\n      <th>Caroline Dangays</th>\n      <th>MA</th>\n      <th>c.dangays@gmail.com</th>\n      </tr>\n    \n\n    <tr>\n      <th>Pauline Decouty</th>\n      <th>MA</th>\n      <th>pauline.decouty@gmail.com</th>\n      </tr>\n    \n\n    <tr>\n      <th>Sophie Baduel</th>\n      <th>PhD</th>\n      <th>sophie.baduel@hotmail.fr</th>\n      </tr>\n    "}, {"location": "Paris, , France", "lat": 48.858705, "lon": 2.342865, "n_therapists": 3, "html": "<h3><b>Paris, , France</b><h3>\n  <table border=\"1\">\n  <tr>\n      <th>Name</th>\n      <th>Degree</th>\n      <th>Email</th>\n    </tr>\n\n    <tr>\n      <th>Camille Jaafari</th>\n      <th></th>\n      <th>camillejaafari.psy@gmail.com</th>\n      </tr>\n    \n\n    <tr>\n      <th>Lyphea Khun-Franck</th>\n      <th></th>\n      <th>lyphea.khun.franck@gmail.com</th>\n      </tr>\n    \n\n    <tr>\n      <th>Madinina Beautin</th>\n      <th></th>\n      <th>mbeautin@gmail.com</th>\n      </tr>\n    "}, {"location": "Montlignon, , France", "lat": 49.010115, "lon": 2.286164, "n_therapists": 1, "html": "<h3><b>Montlignon, , France</b><h3>\n  <table border=\"1\">\n  <tr>\n      <th>Name</th>\n      <th>Degree</th>\n      <th>Email</th>\n    </tr>\n\n    <tr>\n      <th>Candice Robin</th>\n      <th>MA</th>\n      <th>crobin@123tremplin.com</th>\n      </tr>\n    "}, {"location": "Montpellier, , France", "lat": 43.614719, "lon": 3.864104, "n_therapists": 3, "html": "<h3><b>Montpellier, , France</b><h3>\n  <table border=\"1\">\n  <tr>\n      <th>Name</th>\n      <th>Degree</th>\n      <th>Email</th>\n    </tr>\n\n    <tr>\n      <th>Carole Martinez</th>\n      <th>MA</th>\n      <th>carolebenja@yahoo.fr</th>\n      </tr>\n    \n\n    <tr>\n      <th>C\u00e9cile Rattaz</th>\n      <th></th>\n      <th>c-rattaz@chu-montpellier.fr</th>\n      </tr>\n    \n\n    <tr>\n      <th>Lydie Durand</th>\n      <th>MA</th>\n      <th>L.Durand@sesameautismelr.com</th>\n      </tr>\n    "}, {"location": "Villeurbanne, , France", "lat": 45.771418, "lon": 4.88534, "n_therapists": 1, "html": "<h3><b>Villeurbanne, , France</b><h3>\n  <table border=\"1\">\n  <tr>\n      <th>Name</th>\n      <th>Degree</th>\n      <th>Email</th>\n    </tr>\n\n    <tr>\n      <th>Caroline Bonino</th>\n      <th>MS</th>\n      <th>Caroline.bonino@gmail.com</th>\n      </tr>\n    "}, {"location": "Reims, Grand-Est, France", "lat": 49.253684, "lon": 4.035785, "n_therapists": 2, "html": "<h3><b>Reims, Grand-Est, France</b><h3>\n  <table border=\"1\">\n  <tr>\n      <th>Name</th>\n      <th>Degree</th>\n      <th>Email</th>\n    </tr>\n\n    <tr>\n      <th>Charlotte Boissou</th>\n      <th>PhD</th>\n      <th>cboissou@chu-reims.fr</th>\n      </tr>\n    \n\n    <tr>\n      <th>Marielle Audet</th>\n      <th>CCO</th>\n      <th>naudet@chu-reims.fr</th>\n      </tr>\n    "}, {"location": "Saint-Herblain, , France", "lat": 47.212614, "lon": -1.651754, "n_therapists": 1, "html": "<h3><b>Saint-Herblain, , France</b><h3>\n  <table border=\"1\">\n  <tr>\n      <th>Name</th>\n      <th>Degree</th>\n      <th>Email</th>\n    </tr>\n\n    <tr>\n      <th>Christine Thomas</th>\n      <th></th>\n      <th>chris.thomas54@sfr.fr</th>\n      </tr>\n    "}, {"location": "Vertou, , France", "lat": 47.179232, "lon": -1.490203, "n_therapists": 1, "html": "<h3><b>Vertou, , France</b><h3>\n  <table border=\"1\">\n  <tr>\n      <th>Name</th>\n      <th>Degree</th>\n      <th>Email</th>\n    </tr>\n\n    <tr>\n      <th>Clara Blanco</th>\n      <th>MA</th>\n      <th>clarablanco.psychologue@gmail.com</th>\n      </tr>\n    "}, {"location": "Villeurbanne, Rh\u00f4ne-Alpes, France", "lat": 45.771418, "lon": 4.88534, "n_therapists": 1, "html": "<h3><b>Villeurbanne, Rh\u00f4ne-Alpes, France</b><h3>\n  <table border=\"1\">\n  <tr>\n      <th>Name</th>\n      <th>Degree</th>\n      <th>Email</th>\n    </tr>\n\n    <tr>\n      <th>Coline Dambrin</th>\n      <th>MD</th>\n      <th>coline.dambrin@ch-le-vinatier.fr</th>\n      </tr>\n    "}, {"location": "Montreuil, , France", "lat": 48.864158, "lon": 2.448297, "n_therapists": 1, "html": "<h3><b>Montreuil, , France</b><h3>\n  <table border=\"1\">\n  <tr>\n      <th>Name</th>\n      <th>Degree</th>\n      <th>Email</th>\n    </tr>\n\n    <tr>\n      <th>Coralie Riccioz</th>\n      <th>MA</th>\n      <th>c.riccioz@sessadarchipel.fr</th>\n      </tr>\n    "}, {"location": "Normandie, , France", "lat": 49.307166, "lon": 0.890389, "n_therapists": 1, "html": "<h3><b>Normandie, , France</b><h3>\n  <table border=\"1\">\n  <tr>\n      <th>Name</th>\n      <th>Degree</th>\n      <th>Email</th>\n    </tr>\n\n    <tr>\n      <th>Desir\u00e9 Hubert</th>\n      <th></th>\n      <th>desire.hubert@gmail.com</th>\n      </tr>\n    "}, {"location": "Brumath, , France", "lat": 48.733021, "lon": 7.711204, "n_therapists": 1, "html": "<h3><b>Brumath, , France</b><h3>\n  <table border=\"1\">\n  <tr>\n      <th>Name</th>\n      <th>Degree</th>\n      <th>Email</th>\n    </tr>\n\n    <tr>\n      <th>Doroth\u00e9e Gless</th>\n      <th></th>\n      <th></th>\n      </tr>\n    "}, {"location": "Champanges, , France", "lat": 46.370176, "lon": 6.553867, "n_therapists": 1, "html": "<h3><b>Champanges, , France</b><h3>\n  <table border=\"1\">\n  <tr>\n      <th>Name</th>\n      <th>Degree</th>\n      <th>Email</th>\n    </tr>\n\n    <tr>\n      <th>Elsa Reboul</th>\n      <th></th>\n      <th>elsaboule@hotmail.fr</th>\n      </tr>\n    "}, {"location": "Croissy sur seine, Yvelines, France", "lat": 48.876594, "lon": 2.139055, "n_therapists": 2, "html": "<h3><b>Croissy sur seine, Yvelines, France</b><h3>\n  <table border=\"1\">\n  <tr>\n      <th>Name</th>\n      <th>Degree</th>\n      <th>Email</th>\n    </tr>\n\n    <tr>\n      <th>Emilie Agamah</th>\n      <th></th>\n      <th>emilieagamah@hotmail.fr</th>\n      </tr>\n    \n\n    <tr>\n      <th>L\u00e9a Dormoy</th>\n      <th></th>\n      <th>Lea.dormoy.psychologue@gmail.com</th>\n      </tr>\n    "}, {"location": "Nantes, , France", "lat": 47.228973, "lon": -1.554004, "n_therapists": 2, "html": "<h3><b>Nantes, , France</b><h3>\n  <table border=\"1\">\n  <tr>\n      <th>Name</th>\n      <th>Degree</th>\n      <th>Email</th>\n    </tr>\n\n    <tr>\n      <th>Evelyne Sarrazin</th>\n      <th>RN</th>\n      <th>Patrice.sarrazin0867@orange.fr</th>\n      </tr>\n    \n\n    <tr>\n      <th>Marie-Christine Robineau</th>\n      <th></th>\n      <th>robineau.marie-christine@neuf.fr</th>\n      </tr>\n    "}, {"location": "Enghien les bains, , France", "lat": 48.970331, "lon": 2.304271, "n_therapists": 1, "html": "<h3><b>Enghien les bains, , France</b><h3>\n  <table border=\"1\">\n  <tr>\n      <th>Name</th>\n      <th>Degree</th>\n      <th>Email</th>\n    </tr>\n\n    <tr>\n      <th>Fabienne Harris</th>\n      <th>MA</th>\n      <th>Harris.fabienne@gmail.com</th>\n      </tr>\n    "}, {"location": "Toulouse, Midi Pyrenees, France", "lat": 43.603902, "lon": 1.440694, "n_therapists": 1, "html": "<h3><b>Toulouse, Midi Pyrenees, France</b><h3>\n  <table border=\"1\">\n  <tr>\n      <th>Name</th>\n      <th>Degree</th>\n      <th>Email</th>\n    </tr>\n\n    <tr>\n      <th>Fanny Riou-Gardelle</th>\n      <th>DEES</th>\n      <th>riougardelle@hotmail.com</th>\n      </tr>\n    "}, {"location": "Aulnoye-Aymeries, , France", "lat": 50.201501, "lon": 3.84471, "n_therapists": 1, "html": "<h3><b>Aulnoye-Aymeries, , France</b><h3>\n  <table border=\"1\">\n  <tr>\n      <th>Name</th>\n      <th>Degree</th>\n      <th>Email</th>\n    </tr>\n\n    <tr>\n      <th>Florence Swiatek Roverio</th>\n      <th>DESS</th>\n      <th>flroverio@gmail.com</th>\n      </tr>\n    "}, {"location": "Plaisir, , France", "lat": 48.823349, "lon": 1.957617, "n_therapists": 3, "html": "<h3><b>Plaisir, , France</b><h3>\n  <table border=\"1\">\n  <tr>\n      <th>Name</th>\n      <th>Degree</th>\n      <th>Email</th>\n    </tr>\n\n    <tr>\n      <th>Fr\u00e9d\u00e9rique Dumont</th>\n      <th></th>\n      <th>fred.dumont@wanadoo.fr</th>\n      </tr>\n    \n\n    <tr>\n      <th>Guillemette Faure</th>\n      <th></th>\n      <th>faureguillemette@orange.fr</th>\n      </tr>\n    \n\n    <tr>\n      <th>Pascale Pinot-Tresse</th>\n      <th>Psychomotricite</th>\n      <th>pascale.tresse@wanadoo.fr</th>\n      </tr>\n    "}, {"location": "Lille, Haut de France, France", "lat": 50.632786, "lon": 3.059524, "n_therapists": 2, "html": "<h3><b>Lille, Haut de France, France</b><h3>\n  <table border=\"1\">\n  <tr>\n      <th>Name</th>\n      <th>Degree</th>\n      <th>Email</th>\n    </tr>\n\n    <tr>\n      <th>Jean Pierre Pierre De Clercq</th>\n      <th>C.E.S. Pediatrics</th>\n      <th>jpdeclercq@live.fr</th>\n      </tr>\n    \n\n    <tr>\n      <th>Sophie Champenois</th>\n      <th>MA</th>\n      <th>champenois.sophie@gmail.com</th>\n      </tr>\n    "}, {"location": "Neuilly en thelle, , France", "lat": 49.224043, "lon": 2.285701, "n_therapists": 1, "html": "<h3><b>Neuilly en thelle, , France</b><h3>\n  <table border=\"1\">\n  <tr>\n      <th>Name</th>\n      <th>Degree</th>\n      <th>Email</th>\n    </tr>\n\n    <tr>\n      <th>Juliette Lepla</th>\n      <th>MA</th>\n      <th>Juliettelepla@gmail.com</th>\n      </tr>\n    "}, {"location": "Verel Pragondran, Savoie, France", "lat": 45.609765, "lon": 5.946144, "n_therapists": 1, "html": "<h3><b>Verel Pragondran, Savoie, France</b><h3>\n  <table border=\"1\">\n  <tr>\n      <th>Name</th>\n      <th>Degree</th>\n      <th>Email</th>\n    </tr>\n\n    <tr>\n      <th>Laetitia Cuttaree</th>\n      <th></th>\n      <th>lcuttaree@hotmail,com</th>\n      </tr>\n    "}, {"location": "Villeurbanne, Rh\u00f4ne Alpes, France", "lat": 45.771418, "lon": 4.88534, "n_therapists": 2, "html": "<h3><b>Villeurbanne, Rh\u00f4ne Alpes, France</b><h3>\n  <table border=\"1\">\n  <tr>\n      <th>Name</th>\n      <th>Degree</th>\n      <th>Email</th>\n    </tr>\n\n    <tr>\n      <th>Laura Ongaro</th>\n      <th>BSN</th>\n      <th>laura.ongaro@ch-le-vinatier.fr</th>\n      </tr>\n    \n\n    <tr>\n      <th>Vanessa Magne</th>\n      <th>MD</th>\n      <th>vanessa.magne@ch-le-vinatier.fr</th>\n      </tr>\n    "}, {"location": "Reims, , France", "lat": 49.253684, "lon": 4.035785, "n_therapists": 2, "html": "<h3><b>Reims, , France</b><h3>\n  <table border=\"1\">\n  <tr>\n      <th>Name</th>\n      <th>Degree</th>\n      <th>Email</th>\n    </tr>\n\n    <tr>\n      <th>Laurane Grand</th>\n      <th>MA</th>\n      <th>Lgrand@chu-reims.fr</th>\n      </tr>\n    \n\n    <tr>\n      <th>L\u00e9a Hubert</th>\n      <th></th>\n      <th>lhubert@chu-reims.fr</th>\n      </tr>\n    "}, {"location": "Chabons, Isere, France", "lat": 45.441962, "lon": 5.426491, "n_therapists": 1, "html": "<h3><b>Chabons, Isere, France</b><h3>\n  <table border=\"1\">\n  <tr>\n      <th>Name</th>\n      <th>Degree</th>\n      <th>Email</th>\n    </tr>\n\n    <tr>\n      <th>Lauriane Pitot-Belin</th>\n      <th>BAC +3</th>\n      <th>Laurianepb@hotmail.com</th>\n      </tr>\n    "}, {"location": "Bernes sur oise, France, France", "lat": 49.161667, "lon": 2.29992, "n_therapists": 1, "html": "<h3><b>Bernes sur oise, France, France</b><h3>\n  <table border=\"1\">\n  <tr>\n      <th>Name</th>\n      <th>Degree</th>\n      <th>Email</th>\n    </tr>\n\n    <tr>\n      <th>Lise Engel</th>\n      <th>MA</th>\n      <th>lengel@123tremplin.com</th>\n      </tr>\n    "}, {"location": "Versailles, Yvelines, France", "lat": 48.805711, "lon": 2.14319, "n_therapists": 2, "html": "<h3><b>Versailles, Yvelines, France</b><h3>\n  <table border=\"1\">\n  <tr>\n      <th>Name</th>\n      <th>Degree</th>\n      <th>Email</th>\n    </tr>\n\n    <tr>\n      <th>Ly Tran</th>\n      <th></th>\n      <th>ltran@ch-versailles.fr</th>\n      </tr>\n    \n\n    <tr>\n      <th>St\u00e9phanie Valon</th>\n      <th></th>\n      <th>stephanie.valon@gmail.com</th>\n      </tr>\n    "}, {"location": "St Laurent de la Salanque, , France", "lat": 42.773913, "lon": 2.996971, "n_therapists": 1, "html": "<h3><b>St Laurent de la Salanque, , France</b><h3>\n  <table border=\"1\">\n  <tr>\n      <th>Name</th>\n      <th>Degree</th>\n      <th>Email</th>\n    </tr>\n\n    <tr>\n      <th>Marie Elodie Conille</th>\n      <th>MA</th>\n      <th>Elodie.conill@gmail.com</th>\n      </tr>\n    "}, {"location": "Lyon, , France", "lat": 45.732398, "lon": 4.835571, "n_therapists": 2, "html": "<h3><b>Lyon, , France</b><h3>\n  <table border=\"1\">\n  <tr>\n      <th>Name</th>\n      <th>Degree</th>\n      <th>Email</th>\n    </tr>\n\n    <tr>\n      <th>Marie-Maude Geoffray</th>\n      <th>MD</th>\n      <th>marie-maude.geoffray@ch-le-vinatier.fr</th>\n      </tr>\n    \n\n    <tr>\n      <th>Marine Le Drogo</th>\n      <th>MA</th>\n      <th>mledrogo@gmail.com</th>\n      </tr>\n    "}, {"location": "Versailles, , France", "lat": 48.805711, "lon": 2.14319, "n_therapists": 1, "html": "<h3><b>Versailles, , France</b><h3>\n  <table border=\"1\">\n  <tr>\n      <th>Name</th>\n      <th>Degree</th>\n      <th>Email</th>\n    </tr>\n\n    <tr>\n      <th>Marie Poirette</th>\n      <th>SLP</th>\n      <th>poirettemarie@gmail.com</th>\n      </tr>\n    "}, {"location": "Juvignac, H\u00e9rault, France", "lat": 43.628146, "lon": 3.80352, "n_therapists": 1, "html": "<h3><b>Juvignac, H\u00e9rault, France</b><h3>\n  <table border=\"1\">\n  <tr>\n      <th>Name</th>\n      <th>Degree</th>\n      <th>Email</th>\n    </tr>\n\n    <tr>\n      <th>Marion Murcia</th>\n      <th>MA</th>\n      <th>m-murcia@chu-montpellier.fr</th>\n      </tr>\n    "}, {"location": "P\u00e9riguex, France, France", "lat": 45.186376, "lon": 0.723957, "n_therapists": 1, "html": "<h3><b>P\u00e9riguex, France, France</b><h3>\n  <table border=\"1\">\n  <tr>\n      <th>Name</th>\n      <th>Degree</th>\n      <th>Email</th>\n    </tr>\n\n    <tr>\n      <th>M\u00e9lanie Maties</th>\n      <th>MA</th>\n      <th>melaniematies@gmail.com</th>\n      </tr>\n    "}, {"location": "Paris, Ile de France, France", "lat": 48.858705, "lon": 2.342865, "n_therapists": 1, "html": "<h3><b>Paris, Ile de France, France</b><h3>\n  <table border=\"1\">\n  <tr>\n      <th>Name</th>\n      <th>Degree</th>\n      <th>Email</th>\n    </tr>\n\n    <tr>\n      <th>Naomi Downes</th>\n      <th>MA</th>\n      <th>downes.naomi@gmail.com</th>\n      </tr>\n    "}, {"location": "Villaeurbanne, Eurbanne, France", "lat": 46.698481, "lon": 2.549047, "n_therapists": 1, "html": "<h3><b>Villaeurbanne, Eurbanne, France</b><h3>\n  <table border=\"1\">\n  <tr>\n      <th>Name</th>\n      <th>Degree</th>\n      <th>Email</th>\n    </tr>\n\n    <tr>\n      <th>Natacha Gallifet</th>\n      <th>MD</th>\n      <th>natacha.gallifet@ch-le-vinatier.fr</th>\n      </tr>\n    "}, {"location": "Nantes, Loire-Atlantique, France", "lat": 47.228973, "lon": -1.554004, "n_therapists": 2, "html": "<h3><b>Nantes, Loire-Atlantique, France</b><h3>\n  <table border=\"1\">\n  <tr>\n      <th>Name</th>\n      <th>Degree</th>\n      <th>Email</th>\n    </tr>\n\n    <tr>\n      <th>Nicole Garret-Gloanec</th>\n      <th></th>\n      <th>nicole.garret@wanadoo.fr</th>\n      </tr>\n    \n\n    <tr>\n      <th>Muriel Baranger</th>\n      <th>Psyc</th>\n      <th>beranger.muriel@gmail.com</th>\n      </tr>\n    "}, {"location": ", Paris, France", "lat": 48.858705, "lon": 2.342865, "n_therapists": 1, "html": "<h3><b>, Paris, France</b><h3>\n  <table border=\"1\">\n  <tr>\n      <th>Name</th>\n      <th>Degree</th>\n      <th>Email</th>\n    </tr>\n\n    <tr>\n      <th>Paola Velasquez</th>\n      <th></th>\n      <th>paola.velasquez@nck.aphp.fr</th>\n      </tr>\n    "}, {"location": "Croisy sur Seine, Yvelines, France", "lat": 48.793264, "lon": 1.841284, "n_therapists": 1, "html": "<h3><b>Croisy sur Seine, Yvelines, France</b><h3>\n  <table border=\"1\">\n  <tr>\n      <th>Name</th>\n      <th>Degree</th>\n      <th>Email</th>\n    </tr>\n\n    <tr>\n      <th>Priscilla Werba</th>\n      <th></th>\n      <th>priscilla.werba@orange.fr</th>\n      </tr>\n    "}, {"location": "Champigny Sur Marne, Ile de France, France", "lat": 48.81905, "lon": 2.513678, "n_therapists": 1, "html": "<h3><b>Champigny Sur Marne, Ile de France, France</b><h3>\n  <table border=\"1\">\n  <tr>\n      <th>Name</th>\n      <th>Degree</th>\n      <th>Email</th>\n    </tr>\n\n    <tr>\n      <th>Rose-Marie Lirola</th>\n      <th>CCO</th>\n      <th>roselirola@free.fr</th>\n      </tr>\n    "}, {"location": "14 chemin de Certoux Saint Julien-en-Genevoi, , France", "lat": 47.999293, "lon": 0.209666, "n_therapists": 1, "html": "<h3><b>14 chemin de Certoux Saint Julien-en-Genevoi, , France</b><h3>\n  <table border=\"1\">\n  <tr>\n      <th>Name</th>\n      <th>Degree</th>\n      <th>Email</th>\n    </tr>\n\n    <tr>\n      <th>Sophie Diakonoff-Blanc</th>\n      <th>MA</th>\n      <th>sophie.diakonoff@gmail.com</th>\n      </tr>\n    "}, {"location": "Toulouse, , France", "lat": 43.603902, "lon": 1.440694, "n_therapists": 1, "html": "<h3><b>Toulouse, , France</b><h3>\n  <table border=\"1\">\n  <tr>\n      <th>Name</th>\n      <th>Degree</th>\n      <th>Email</th>\n    </tr>\n\n    <tr>\n      <th>Sophie Glatigny</th>\n      <th>BA</th>\n      <th>sophieglatigny@gmail.com</th>\n      </tr>\n    "}, {"location": "La Chapelle sur Edre, , France", "lat": 46.698481, "lon": 2.549047, "n_therapists": 1, "html": "<h3><b>La Chapelle sur Edre, , France</b><h3>\n  <table border=\"1\">\n  <tr>\n      <th>Name</th>\n      <th>Degree</th>\n      <th>Email</th>\n    </tr>\n\n    <tr>\n      <th>Valerie Mauduit</th>\n      <th></th>\n      <th>pavamoro@free.fr</th>\n      </tr>\n    "}, {"location": "Lyon, Rh\u00f4ne-Alpes, France", "lat": 45.732398, "lon": 4.835571, "n_therapists": 1, "html": "<h3><b>Lyon, Rh\u00f4ne-Alpes, France</b><h3>\n  <table border=\"1\">\n  <tr>\n      <th>Name</th>\n      <th>Degree</th>\n      <th>Email</th>\n    </tr>\n\n    <tr>\n      <th>Val\u00e9rie Arnaud Malo</th>\n      <th>MA</th>\n      <th>valarnaudmalo@gmail.com</th>\n      </tr>\n    "}, {"location": "Montmelian, , France", "lat": 45.500213, "lon": 6.055946, "n_therapists": 1, "html": "<h3><b>Montmelian, , France</b><h3>\n  <table border=\"1\">\n  <tr>\n      <th>Name</th>\n      <th>Degree</th>\n      <th>Email</th>\n    </tr>\n\n    <tr>\n      <th>Val\u00e9rie GIRARD</th>\n      <th></th>\n      <th>girardvalerie73@free.fr</th>\n      </tr>\n    "}, {"location": "La Celle Saint Cloud, Yvelines, France", "lat": 48.846141, "lon": 2.137139, "n_therapists": 1, "html": "<h3><b>La Celle Saint Cloud, Yvelines, France</b><h3>\n  <table border=\"1\">\n  <tr>\n      <th>Name</th>\n      <th>Degree</th>\n      <th>Email</th>\n    </tr>\n\n    <tr>\n      <th>Virginie Pau</th>\n      <th>DE</th>\n      <th>Virginie.pau@icloud.com</th>\n      </tr>\n    "}, {"location": "La Villeneuve en Chevrie, Yvelines, France", "lat": 49.015347, "lon": 1.527432, "n_therapists": 1, "html": "<h3><b>La Villeneuve en Chevrie, Yvelines, France</b><h3>\n  <table border=\"1\">\n  <tr>\n      <th>Name</th>\n      <th>Degree</th>\n      <th>Email</th>\n    </tr>\n\n    <tr>\n      <th>Laurence Kahn</th>\n      <th>Psyc</th>\n      <th>kahnlaurence@gmail.com</th>\n      </tr>\n    "}, {"location": "Montreuil, Seine Saint Denis, France", "lat": 48.864158, "lon": 2.448297, "n_therapists": 1, "html": "<h3><b>Montreuil, Seine Saint Denis, France</b><h3>\n  <table border=\"1\">\n  <tr>\n      <th>Name</th>\n      <th>Degree</th>\n      <th>Email</th>\n    </tr>\n\n    <tr>\n      <th>B\u00e9n\u00e9dicte Drapeau</th>\n      <th>MA</th>\n      <th>b.drapeau@sessadarchipel.fr</th>\n      </tr>\n    "}, {"location": "Paris, \u00eele de France, France", "lat": 48.858705, "lon": 2.342865, "n_therapists": 1, "html": "<h3><b>Paris, \u00eele de France, France</b><h3>\n  <table border=\"1\">\n  <tr>\n      <th>Name</th>\n      <th>Degree</th>\n      <th>Email</th>\n    </tr>\n\n    <tr>\n      <th>Marine Le Drogo</th>\n      <th>MA</th>\n      <th>mledrogo@gmail.com</th>\n      </tr>\n    "}, {"location": "Montreuil, Sein Saint Denis, France", "lat": 48.864158, "lon": 2.448297, "n_therapists": 1, "html": "<h3><b>Montreuil, Sein Saint Denis, France</b><h3>\n  <table border=\"1\">\n  <tr>\n      <th>Name</th>\n      <th>Degree</th>\n      <th>Email</th>\n    </tr>\n\n    <tr>\n      <th>Gueni\u00e8vre Paris</th>\n      <th>MA</th>\n      <th>g.paris@sessadarchipel.fr</th>\n      </tr>\n    "}, {"location": "Hamburg, Hamburg, Germany", "lat": 53.576158, "lon": 10.007046, "n_therapists": 1, "html": "<h3><b>Hamburg, Hamburg, Germany</b><h3>\n  <table border=\"1\">\n  <tr>\n      <th>Name</th>\n      <th>Degree</th>\n      <th>Email</th>\n    </tr>\n\n    <tr>\n      <th>Miriam Br\u00e4uer</th>\n      <th>OT</th>\n      <th>miriamfbraeuer@gmail.com</th>\n      </tr>\n    "}, {"location": "Athens, , Greece", "lat": 37.988579, "lon": 23.728541, "n_therapists": 3, "html": "<h3><b>Athens, , Greece</b><h3>\n  <table border=\"1\">\n  <tr>\n      <th>Name</th>\n      <th>Degree</th>\n      <th>Email</th>\n    </tr>\n\n    <tr>\n      <th>Evdokia Pasalari</th>\n      <th>MSc</th>\n      <th>evdokia.pasalari@gmail.com</th>\n      </tr>\n    \n\n    <tr>\n      <th>Ioanna Katsika</th>\n      <th></th>\n      <th>gianna.katsika@hotmail.com</th>\n      </tr>\n    \n\n    <tr>\n      <th>Mara Sarafidou</th>\n      <th>MA</th>\n      <th>marasarafidou@gmail.com</th>\n      </tr>\n    "}, {"location": "Tarbert, Kerry, Ireland", "lat": 52.57278, "lon": -9.37528, "n_therapists": 1, "html": "<h3><b>Tarbert, Kerry, Ireland</b><h3>\n  <table border=\"1\">\n  <tr>\n      <th>Name</th>\n      <th>Degree</th>\n      <th>Email</th>\n    </tr>\n\n    <tr>\n      <th>Angela Kelly</th>\n      <th>BAPsych, M.Res ClinPsych, MA EdPsych</th>\n      <th>angelackelly@gmail.com</th>\n      </tr>\n    "}, {"location": "Tralee, Kerry, Ireland", "lat": 52.274147, "lon": -9.69381, "n_therapists": 1, "html": "<h3><b>Tralee, Kerry, Ireland</b><h3>\n  <table border=\"1\">\n  <tr>\n      <th>Name</th>\n      <th>Degree</th>\n      <th>Email</th>\n    </tr>\n\n    <tr>\n      <th>Dominika Lisiecka</th>\n      <th>PhD</th>\n      <th>sltclinic@gmail.com</th>\n      </tr>\n    "}, {"location": "Carrick on Shannon, Leitrim, Ireland", "lat": 53.945847, "lon": -8.078714, "n_therapists": 1, "html": "<h3><b>Carrick on Shannon, Leitrim, Ireland</b><h3>\n  <table border=\"1\">\n  <tr>\n      <th>Name</th>\n      <th>Degree</th>\n      <th>Email</th>\n    </tr>\n\n    <tr>\n      <th>Kieron Merriman</th>\n      <th>MSc. PsyD</th>\n      <th>merrimak@tcd.ie></th>\n      </tr>\n    "}, {"location": "Limerick, Limerick, Ireland", "lat": 52.663971, "lon": -8.618035, "n_therapists": 1, "html": "<h3><b>Limerick, Limerick, Ireland</b><h3>\n  <table border=\"1\">\n  <tr>\n      <th>Name</th>\n      <th>Degree</th>\n      <th>Email</th>\n    </tr>\n\n    <tr>\n      <th>Olive Barry</th>\n      <th>BS, MPH, MS</th>\n      <th>olivem.barry@hse.ie</th>\n      </tr>\n    "}, {"location": "Even Yehuda, Israel, Israel", "lat": 31.852042, "lon": 34.97893, "n_therapists": 1, "html": "<h3><b>Even Yehuda, Israel, Israel</b><h3>\n  <table border=\"1\">\n  <tr>\n      <th>Name</th>\n      <th>Degree</th>\n      <th>Email</th>\n    </tr>\n\n    <tr>\n      <th>Adva Shir</th>\n      <th>BCBA</th>\n      <th>advashir87@gmail.com</th>\n      </tr>\n    "}, {"location": "Ra\u2019anana, Israel, Israel", "lat": 31.852042, "lon": 34.97893, "n_therapists": 1, "html": "<h3><b>Ra\u2019anana, Israel, Israel</b><h3>\n  <table border=\"1\">\n  <tr>\n      <th>Name</th>\n      <th>Degree</th>\n      <th>Email</th>\n    </tr>\n\n    <tr>\n      <th>Aviah Dror-Miller</th>\n      <th>B.OT</th>\n      <th>Aviah.d@gmail.com</th>\n      </tr>\n    "}, {"location": "Tel-Aviv, , Israel", "lat": 32.066455, "lon": 34.783553, "n_therapists": 2, "html": "<h3><b>Tel-Aviv, , Israel</b><h3>\n  <table border=\"1\">\n  <tr>\n      <th>Name</th>\n      <th>Degree</th>\n      <th>Email</th>\n    </tr>\n\n    <tr>\n      <th>Einat Shoham</th>\n      <th>MA</th>\n      <th>shohameinat@gmail.com</th>\n      </tr>\n    \n\n    <tr>\n      <th>Hadas Yanai</th>\n      <th>MA</th>\n      <th>hadas.yanai@gmail.com</th>\n      </tr>\n    "}, {"location": "Haifa, , Israel", "lat": 32.792761, "lon": 34.995336, "n_therapists": 1, "html": "<h3><b>Haifa, , Israel</b><h3>\n  <table border=\"1\">\n  <tr>\n      <th>Name</th>\n      <th>Degree</th>\n      <th>Email</th>\n    </tr>\n\n    <tr>\n      <th>Gabi Levy</th>\n      <th>MA</th>\n      <th>levygabriela7@gmail.com</th>\n      </tr>\n    "}, {"location": "Nachshonim, , Israel", "lat": 30.895128, "lon": 34.874702, "n_therapists": 1, "html": "<h3><b>Nachshonim, , Israel</b><h3>\n  <table border=\"1\">\n  <tr>\n      <th>Name</th>\n      <th>Degree</th>\n      <th>Email</th>\n    </tr>\n\n    <tr>\n      <th>Inbal Eilon</th>\n      <th>MA</th>\n      <th>inbaly.cohen@gmail.com</th>\n      </tr>\n    "}, {"location": "Kfar-Saba, , Israel", "lat": 32.175, "lon": 34.90694, "n_therapists": 1, "html": "<h3><b>Kfar-Saba, , Israel</b><h3>\n  <table border=\"1\">\n  <tr>\n      <th>Name</th>\n      <th>Degree</th>\n      <th>Email</th>\n    </tr>\n\n    <tr>\n      <th>Inbar Evantal Vulfson</th>\n      <th>BA</th>\n      <th>inbarevantal@gmail.com</th>\n      </tr>\n    "}, {"location": "Kfar Saba, , Israel", "lat": 32.175, "lon": 34.90694, "n_therapists": 2, "html": "<h3><b>Kfar Saba, , Israel</b><h3>\n  <table border=\"1\">\n  <tr>\n      <th>Name</th>\n      <th>Degree</th>\n      <th>Email</th>\n    </tr>\n\n    <tr>\n      <th>Moran Liber Pollak</th>\n      <th>MA</th>\n      <th>moranliber@gmail.com</th>\n      </tr>\n    \n\n    <tr>\n      <th>Reut Beizer Stanitsky</th>\n      <th>MSW</th>\n      <th>reutib10@gmail.com</th>\n      </tr>\n    "}, {"location": "Tel Mond, , Israel", "lat": 32.24995, "lon": 34.91737, "n_therapists": 1, "html": "<h3><b>Tel Mond, , Israel</b><h3>\n  <table border=\"1\">\n  <tr>\n      <th>Name</th>\n      <th>Degree</th>\n      <th>Email</th>\n    </tr>\n\n    <tr>\n      <th>Ron Wolf-Elion</th>\n      <th>MA</th>\n      <th>rselion7@gmail.com</th>\n      </tr>\n    "}, {"location": "Hod Hasharon, Israel, Israel", "lat": 31.852042, "lon": 34.97893, "n_therapists": 1, "html": "<h3><b>Hod Hasharon, Israel, Israel</b><h3>\n  <table border=\"1\">\n  <tr>\n      <th>Name</th>\n      <th>Degree</th>\n      <th>Email</th>\n    </tr>\n\n    <tr>\n      <th>Shachar Bachar</th>\n      <th>MA</th>\n      <th>bzshachar@gmail.com</th>\n      </tr>\n    "}, {"location": ", , Israel", "lat": 30.895128, "lon": 34.874702, "n_therapists": 1, "html": "<h3><b>, , Israel</b><h3>\n  <table border=\"1\">\n  <tr>\n      <th>Name</th>\n      <th>Degree</th>\n      <th>Email</th>\n    </tr>\n\n    <tr>\n      <th>Tali Gev</th>\n      <th></th>\n      <th>gevtali@gmail.com</th>\n      </tr>\n    "}, {"location": "Caesarea, Israel, Israel", "lat": 31.852042, "lon": 34.97893, "n_therapists": 1, "html": "<h3><b>Caesarea, Israel, Israel</b><h3>\n  <table border=\"1\">\n  <tr>\n      <th>Name</th>\n      <th>Degree</th>\n      <th>Email</th>\n    </tr>\n\n    <tr>\n      <th>Yael Kohn</th>\n      <th>PT.</th>\n      <th>yael.kohn1@gmail.com</th>\n      </tr>\n    "}, {"location": "Herzliya, , Israel", "lat": 32.171739, "lon": 34.825672, "n_therapists": 1, "html": "<h3><b>Herzliya, , Israel</b><h3>\n  <table border=\"1\">\n  <tr>\n      <th>Name</th>\n      <th>Degree</th>\n      <th>Email</th>\n    </tr>\n\n    <tr>\n      <th>Yamit Karabelnik</th>\n      <th>MA</th>\n      <th>yamitka@gmail.com</th>\n      </tr>\n    "}, {"location": "Ra\u2019anana, , Israel", "lat": 32.1836, "lon": 34.87386, "n_therapists": 1, "html": "<h3><b>Ra\u2019anana, , Israel</b><h3>\n  <table border=\"1\">\n  <tr>\n      <th>Name</th>\n      <th>Degree</th>\n      <th>Email</th>\n    </tr>\n\n    <tr>\n      <th>Yana Gavrilov-Sinai</th>\n      <th>MA</th>\n      <th>Yana.gavrilov@gmail.com</th>\n      </tr>\n    "}, {"location": "Trieste, Italy, Italy", "lat": 45.630313, "lon": 13.795789, "n_therapists": 2, "html": "<h3><b>Trieste, Italy, Italy</b><h3>\n  <table border=\"1\">\n  <tr>\n      <th>Name</th>\n      <th>Degree</th>\n      <th>Email</th>\n    </tr>\n\n    <tr>\n      <th>Adele Prezioso</th>\n      <th>OT</th>\n      <th>84fata@gmail.com</th>\n      </tr>\n    \n\n    <tr>\n      <th>Chiara Zoccheddu</th>\n      <th>OT</th>\n      <th>chiara.zoccheddu@asugi.sanita.fvg.it</th>\n      </tr>\n    "}, {"location": "Catania, Sicily, Italy", "lat": 37.516282, "lon": 15.076072, "n_therapists": 1, "html": "<h3><b>Catania, Sicily, Italy</b><h3>\n  <table border=\"1\">\n  <tr>\n      <th>Name</th>\n      <th>Degree</th>\n      <th>Email</th>\n    </tr>\n\n    <tr>\n      <th>Agrippina Campisi</th>\n      <th>MA</th>\n      <th>agrippina.campisi@live.it</th>\n      </tr>\n    "}, {"location": ", , Italy", "lat": 45.003229, "lon": 11.083693, "n_therapists": 3, "html": "<h3><b>, , Italy</b><h3>\n  <table border=\"1\">\n  <tr>\n      <th>Name</th>\n      <th>Degree</th>\n      <th>Email</th>\n    </tr>\n\n    <tr>\n      <th>Anna Catalano</th>\n      <th>MS</th>\n      <th>catalanomarchese@gmail.com</th>\n      </tr>\n    \n\n    <tr>\n      <th>Niccolo Collini</th>\n      <th>MS</th>\n      <th>niccolocollini@yahoo.it</th>\n      </tr>\n    \n\n    <tr>\n      <th>Rosalinda Campisi</th>\n      <th>MS</th>\n      <th>rosalindac@virgilio.it</th>\n      </tr>\n    "}, {"location": "Verona, Italy, Italy", "lat": 45.413277, "lon": 10.977656, "n_therapists": 1, "html": "<h3><b>Verona, Italy, Italy</b><h3>\n  <table border=\"1\">\n  <tr>\n      <th>Name</th>\n      <th>Degree</th>\n      <th>Email</th>\n    </tr>\n\n    <tr>\n      <th>Anna Girardi</th>\n      <th>OT</th>\n      <th>ANNA.GIRARDI.TNPEE@GMAIL.COM</th>\n      </tr>\n    "}, {"location": "Pisa, Tuscany, Italy", "lat": 43.709085, "lon": 10.398916, "n_therapists": 3, "html": "<h3><b>Pisa, Tuscany, Italy</b><h3>\n  <table border=\"1\">\n  <tr>\n      <th>Name</th>\n      <th>Degree</th>\n      <th>Email</th>\n    </tr>\n\n    <tr>\n      <th>Annarita Contaldo</th>\n      <th>MD</th>\n      <th>acontaldo@fsm.unipi.it</th>\n      </tr>\n    \n\n    <tr>\n      <th>Caterina Pierotti</th>\n      <th></th>\n      <th>caterinapierotti@tiscali.it</th>\n      </tr>\n    \n\n    <tr>\n      <th>Giulia Purpura</th>\n      <th>PhD</th>\n      <th>giulia.purpura@fsm.unipi.it</th>\n      </tr>\n    "}, {"location": "Calambrone, Pisa, Italy", "lat": 43.58333, "lon": 10.3, "n_therapists": 1, "html": "<h3><b>Calambrone, Pisa, Italy</b><h3>\n  <table border=\"1\">\n  <tr>\n      <th>Name</th>\n      <th>Degree</th>\n      <th>Email</th>\n    </tr>\n\n    <tr>\n      <th>Antonio Narzisi</th>\n      <th>PhD</th>\n      <th>anarzisi@fsm.unipi.it</th>\n      </tr>\n    "}, {"location": "Pisa, , Italy", "lat": 43.709085, "lon": 10.398916, "n_therapists": 1, "html": "<h3><b>Pisa, , Italy</b><h3>\n  <table border=\"1\">\n  <tr>\n      <th>Name</th>\n      <th>Degree</th>\n      <th>Email</th>\n    </tr>\n\n    <tr>\n      <th>Carla Blandino</th>\n      <th></th>\n      <th>blandinotnpee@gmail.com</th>\n      </tr>\n    "}, {"location": "San Pier d'Isonzo, Friuli Venezia Giulia, Italy", "lat": 45.844854, "lon": 13.462136, "n_therapists": 1, "html": "<h3><b>San Pier d'Isonzo, Friuli Venezia Giulia, Italy</b><h3>\n  <table border=\"1\">\n  <tr>\n      <th>Name</th>\n      <th>Degree</th>\n      <th>Email</th>\n    </tr>\n\n    <tr>\n      <th>Chiara Cuzzot</th>\n      <th>MA</th>\n      <th>chiaracuzz@gmail.com</th>\n      </tr>\n    "}, {"location": "Thiene, Vicenza, Italy", "lat": 45.705838, "lon": 11.478002, "n_therapists": 1, "html": "<h3><b>Thiene, Vicenza, Italy</b><h3>\n  <table border=\"1\">\n  <tr>\n      <th>Name</th>\n      <th>Degree</th>\n      <th>Email</th>\n    </tr>\n\n    <tr>\n      <th>Chiara De Sero</th>\n      <th></th>\n      <th>chiara.desero@virgilio.it</th>\n      </tr>\n    "},